[
  {
      "name": "Hoku Helsinki",
      "category": "Hawaiian, Asian Fusion",
      "phone": "+358 12 345 6789",
      "website": "http://www.hoku.fi",
      "address": {
          "street": "annankatu_28",
          "postal": "01000",
          "city": "helsinki",
          "country": "finland"
      },
      "coordinates": { "lat": 60.16763171124735, "long": 24.93563135889214 },
      "images": ["food1.jpg", "food2.jpg", "food3.jpg"],
      "reviewsTotal": 0,
      "reviewsAverage": 0
  },
  {
      "name": "Tokyo Street",
      "category": "Japanese, Sushi",
      "phone": "+358 12 987 6543",
      "website": "http://www.tokyostreet.fi",
      "address": {
          "street": "erottajankatu_10",
          "postal": "01010",
          "city": "helsinki",
          "country": "finland"
      },
      "coordinates": { "lat": 60.16548541370081, "long": 24.943744324169458 },
      "images": ["food1.jpg", "food2.jpg", "food3.jpg"],
      "reviewsTotal": 0,
      "reviewsAverage": 0
  },
  {
      "name": "Nordic Bites",
      "category": "Nordic, Scandinavian",
      "phone": "+358 13 555 6677",
      "website": "http://www.nordicbites.fi",
      "address": {
          "street": "kluuvikatu_4",
          "postal": "01020",
          "city": "helsinki",
          "country": "finland"
      },
      "coordinates": { "lat": 60.168666833036994, "long": 24.947161531671995 },
      "images": ["food1.jpg", "food2.jpg", "food3.jpg"],
      "reviewsTotal": 0,
      "reviewsAverage": 0
  },
  {
      "name": "Café Bonjour",
      "category": "French, Café",
      "phone": "+358 14 555 2233",
      "website": "http://www.cafebonjour.fi",
      "address": {
          "street": "mannerheimintie_22",
          "postal": "01030",
          "city": "helsinki",
          "country": "finland"
      },
      "coordinates": { "lat": 60.17043058097076, "long": 24.93684390327354 },
      "images": ["food1.jpg", "food2.jpg", "food3.jpg"],
      "reviewsTotal": 0,
      "reviewsAverage": 0
  },
  {
      "name": "Pasta House",
      "category": "Italian",
      "phone": "+358 15 222 4567",
      "website": "http://www.pastahouse.fi",
      "address": {
          "street": "pohjoisesplanadi_9",
          "postal": "01040",
          "city": "helsinki",
          "country": "finland"
      },
      "coordinates": { "lat": 60.16864627145819, "long": 24.95424007584397 },
      "images": ["food1.jpg", "food2.jpg", "food3.jpg"],
      "reviewsTotal": 0,
      "reviewsAverage": 0
  },
  {
      "name": "Spice Route",
      "category": "Indian",
      "phone": "+358 16 333 8877",
      "website": "http://www.spiceroute.fi",
      "address": {
          "street": "aleksanterinkatu_15",
          "postal": "01050",
          "city": "helsinki",
          "country": "finland"
      },
      "coordinates": { "lat": 60.16909575362763, "long": 24.944918835960237 },
      "images": ["food1.jpg", "food2.jpg", "food3.jpg"],
      "reviewsTotal": 0,
      "reviewsAverage": 0
  },
  {
      "name": "Green Leaf",
      "category": "Vegetarian, Organic",
      "phone": "+358 17 555 9999",
      "website": "http://www.greenleaf.fi",
      "address": {
          "street": "lönnrotinkatu_5",
          "postal": "01060",
          "city": "helsinki",
          "country": "finland"
      },
      "coordinates": { "lat": 60.16706762460777, "long": 24.939853727266065 },
      "images": ["food1.jpg", "food2.jpg", "food3.jpg"],
      "reviewsTotal": 0,
      "reviewsAverage": 0
  },
  {
      "name": "Fiesta Mexicana",
      "category": "Mexican",
      "phone": "+358 18 222 8888",
      "website": "http://www.fiestamexicana.fi",
      "address": {
          "street": "yrjönkatu 12",
          "postal": "01070",
          "city": "helsinki",
          "country": "finland"
      },
      "coordinates": { "lat": 60.164818716312034, "long": 24.942955014655478 },
      "images": ["food1.jpg", "food2.jpg", "food3.jpg"],
      "reviewsTotal": 0,
      "reviewsAverage": 0
  },
  {
      "name": "Burger Haven",
      "category": "American, Fast Food",
      "phone": "+358 19 111 7777",
      "website": "http://www.burgerhaven.fi",
      "address": {
          "street": "keskuskatu_3",
          "postal": "01080",
          "city": "helsinki",
          "country": "finland"
      },
      "coordinates": { "lat": 60.168445293403146, "long": 24.943189537986186 },
      "images": ["food1.jpg", "food2.jpg", "food3.jpg"],
      "reviewsTotal": 0,
      "reviewsAverage": 0
  },
  {
      "name": "Korean Grill",
      "category": "Korean, BBQ",
      "phone": "+358 20 333 4444",
      "website": "http://www.koreangrill.fi",
      "address": {
          "street": "fredrikinkatu_8",
          "postal": "01090",
          "city": "helsinki",
          "country": "finland"
      },
      "coordinates": { "lat": 60.16105911342521, "long": 24.94132580898967 },
      "images": ["food1.jpg", "food2.jpg", "food3.jpg"],
      "reviewsTotal": 0,
      "reviewsAverage": 0
  }
]
