[
  {
    "name": "ARMILAN SAIRAALA, RAVINTOLA LOUNASKEIDAS",
    "address": "ARMILANKATU 44",
    "postal_code": "53100",
    "city": "LAPPEENRANTA",
    "website": "https://www.saimaantukipalvelut.fi",
    "admin": "SAIMAAN TUKIPALVELUT OY",
    "admin_website": "https://www.saimaantukipalvelut.fi",
    "longitude": 28.213738,
    "latitude": 61.060198
  },
  {
    "name": "BISTRO SKINNARILA",
    "address": "LASERKATU 6",
    "postal_code": "53850",
    "city": "LAPPEENRANTA",
    "website": null,
    "admin": "COMPASS GROUP FINLAND OY",
    "admin_website": "https://www.compass-group.fi/",
    "longitude": 28.096606,
    "latitude": 61.062153
  },
  {
    "name": "CAFE SHALIK LUT & LAHORI BITES",
    "address": "LUT, YLIOPISTONKATU 34",
    "postal_code": "53850",
    "city": "LAPPEENRANTA",
    "website": null,
    "admin": "REHANA & KHURSHID AY",
    "admin_website": null,
    "longitude": 28.09156,
    "latitude": 61.064525
  },
  {
    "name": "ETELÄ-KARJALAN KESKUSSAIRAALA, RAVINTOLA VALTO",
    "address": "VALTO KÄKELÄN KATU 1",
    "postal_code": "53130",
    "city": "LAPPEENRANTA",
    "website": "https://www.saimaantukipalvelut.fi",
    "admin": "SAIMAAN TUKIPALVELUT OY",
    "admin_website": "https://www.saimaantukipalvelut.fi",
    "longitude": 28.210571,
    "latitude": 61.065157
  },
  {
    "name": "RAVINTOLA LUT BUFFET",
    "address": "SKINNARILANKATU 34",
    "postal_code": "53850",
    "city": "LAPPEENRANTA",
    "website": "https://www.kampusravintolat.fi/",
    "admin": "KAMPUSRAVINTOLAT OY",
    "admin_website": "https://www.kampusravintolat.fi/",
    "longitude": 28.093636,
    "latitude": 61.064225
  },
  {
    "name": "RAVINTOLA SKINNARILA",
    "address": "SKINNARILANKATU 36",
    "postal_code": "53850",
    "city": "LAPPEENRANTA",
    "website": "https://www.kampusravintolat.fi/",
    "admin": "KAMPUSRAVINTOLAT OY",
    "admin_website": "https://www.kampusravintolat.fi/",
    "longitude": 28.093636,
    "latitude": 61.064225
  },
  {
    "name": "YLIOPPILASTALON RAVINTOLA",
    "address": "LASERKATU 10",
    "postal_code": "53850",
    "city": "LAPPEENRANTA",
    "website": "https://www.aalef.fi/",
    "admin": "AALEF OY",
    "admin_website": "https://www.aalef.fi/",
    "longitude": 28.095601,
    "latitude": 61.064077
  },
  {
    "name": "RUOKASALI PIHLAJA",
    "address": "HANNEKSENRINNE 7",
    "postal_code": "60220",
    "city": "SEINÄJOKI",
    "website": null,
    "admin": "ETELÄ-POHJANMAAN HYVINVOINTIALUE",
    "admin_website": null,
    "longitude": 22.821134,
    "latitude": 62.771501
  },
  {
    "name": "SEINÄJOEN AMK, FRAMI",
    "address": "KAMPUSRANTA 11",
    "postal_code": "60320",
    "city": "SEINÄJOKI",
    "website": "https://www.sodexo.fi/ravintolat/ravintola-frami",
    "admin": "SODEXO OY",
    "admin_website": "https://www.sodexo.fi",
    "longitude": 22.822043,
    "latitude": 62.789363
  },
  {
    "name": "SEINÄJOEN AMK, KAMPUSTALO",
    "address": "KALEVANKATU 35",
    "postal_code": "60100",
    "city": "SEINÄJOKI",
    "website": "https://www.sodexo.fi",
    "admin": "SODEXO OY",
    "admin_website": "https://www.sodexo.fi",
    "longitude": 22.826006,
    "latitude": 62.788814
  },
  {
    "name": "MIKKELIN KESKUSSAIRAALAN HENKILÖSTÖRAVINTOLA",
    "address": "PORRASSALMENKATU 35-37",
    "postal_code": "50100",
    "city": "MIKKELI",
    "website": "https://etelasavonha.fi/",
    "admin": "ETELÄ-SAVON HYVINVOINTIALUE",
    "admin_website": "https://etelasavonha.fi/",
    "longitude": 27.278263,
    "latitude": 61.691949
  },
  {
    "name": "RAVINTOLA DEXI",
    "address": "PATTERISTONKATU 3",
    "postal_code": "50100",
    "city": "MIKKELI",
    "website": "https://www.xamkravintolat.fi/",
    "admin": "KAAKKOIS-SUOMEN AMMATTIKORKEAKOULU OY",
    "admin_website": "https://www.xamkravintolat.fi/",
    "longitude": 27.26091,
    "latitude": 61.679786
  },
  {
    "name": "RAVINTOLA HERKKU",
    "address": "LÖNNROTINKATU 5",
    "postal_code": "50100",
    "city": "MIKKELI",
    "website": "https://www.herkkuruoka.fi/",
    "admin": "AK HERKKU OY",
    "admin_website": null,
    "longitude": 27.263108,
    "latitude": 61.689311
  },
  {
    "name": "RAVINTOLA KASARMINA",
    "address": "PATTERISTONKATU 3 B-RAK.",
    "postal_code": "50100",
    "city": "MIKKELI",
    "website": "https://www.xamkravintolat.fi/",
    "admin": "KAAKKOIS-SUOMEN AMMATTIKORKEAKOULU OY",
    "admin_website": "https://www.xamkravintolat.fi/",
    "longitude": 27.26091,
    "latitude": 61.679786
  },
  {
    "name": "OPISKELIJARAVINTOLA VIIKUNA",
    "address": "HUVILAKATU 31",
    "postal_code": "76130",
    "city": "PIEKSÄMÄKI",
    "website": "https://www.kirkkopalvelut.fi/",
    "admin": "KIRKKOPALVELUT RY, SEURAKUNTAOPISTO",
    "admin_website": "https://www.kirkkopalvelut.fi/",
    "longitude": 27.129723,
    "latitude": 62.303934
  },
  {
    "name": "LOUNASRAVINTOLA SYDÄNYSTÄVÄ",
    "address": "KESKUSSAIRAALANTIE 6",
    "postal_code": "57120",
    "city": "SAVONLINNA",
    "website": "https://etelasavonha.fi/",
    "admin": "ETELÄ-SAVON HYVINVOINTIALUE",
    "admin_website": "https://etelasavonha.fi/",
    "longitude": 28.850974,
    "latitude": 61.870944
  },
  {
    "name": "RAVINTOLA KAARI",
    "address": "SAVONNIEMENKATU 6",
    "postal_code": "57100",
    "city": "SAVONLINNA",
    "website": "https://www.xamkravintolat.fi/",
    "admin": "KAAKKOIS-SUOMEN AMMATTIKORKEAKOULU OY",
    "admin_website": "https://www.xamkravintolat.fi/",
    "longitude": 28.878477,
    "latitude": 61.866178
  },
  {
    "name": "HENKILÖSTÖRAVINTOLA KOIVU",
    "address": "SOTKAMONTIE 13",
    "postal_code": "87300",
    "city": "KAJAANI",
    "website": null,
    "admin": "KAINUUN HYVINVOINTIALUE",
    "admin_website": null,
    "longitude": 27.727947,
    "latitude": 64.214363
  },
  {
    "name": "OPISKELIJARAVINTOLA FOX",
    "address": "KETUNPOLKU 1",
    "postal_code": "87100",
    "city": "KAJAANI",
    "website": null,
    "admin": "KAJAANIN KAUPUNKI, KAJAANIN MAMSELLI -LIIKELAITOS",
    "admin_website": null,
    "longitude": 27.712556,
    "latitude": 64.216835
  },
  {
    "name": "RAVINTOLA KOIVU",
    "address": "SOTKAMONTIE 13",
    "postal_code": "87300",
    "city": "KAJAANI",
    "website": null,
    "admin": "VIREKO OY",
    "admin_website": null,
    "longitude": 27.727947,
    "latitude": 64.214363
  },
  {
    "name": "APAJA",
    "address": "KESKUSKATU 11",
    "postal_code": "88600",
    "city": "SOTKAMO",
    "website": null,
    "admin": "SOTKAMON KUNTA",
    "admin_website": null,
    "longitude": 28.391964,
    "latitude": 64.133199
  },
  {
    "name": "OPISKELIJARAVINTOLA KULTALUSIKKA",
    "address": "VUOKATINHOVINTIE 2",
    "postal_code": "88610",
    "city": "VUOKATTI",
    "website": null,
    "admin": "SOTKAMON KUNTA",
    "admin_website": null,
    "longitude": 28.291354,
    "latitude": 64.140617
  },
  {
    "name": "FORSSAN RUOKALA, KOSTHOLLI",
    "address": "WAHRENINKATU 11 E",
    "postal_code": "30100",
    "city": "FORSSA",
    "website": "https://www.hamk.fi",
    "admin": "HÄMEEN AMMATTIKORKEAKOULU OY",
    "admin_website": "https://www.hamk.fi",
    "longitude": 23.621443,
    "latitude": 60.815692
  },
  {
    "name": "LOUNASRAVINTOLA SAHERA",
    "address": "URHEILUKENTÄNKATU 9",
    "postal_code": "30100",
    "city": "FORSSA",
    "website": "https://www.loiku.fi/",
    "admin": "LOIMIJOEN KUNTAPALVELUT OY",
    "admin_website": "https://www.loiku.fi/",
    "longitude": 23.638728,
    "latitude": 60.820529
  },
  {
    "name": "EVON RUOKALA",
    "address": "SAARELANTIE 1",
    "postal_code": "16970",
    "city": "EVO",
    "website": "https://www.hamk.fi",
    "admin": "HÄMEEN AMMATTIKORKEAKOULU OY",
    "admin_website": "https://www.hamk.fi",
    "longitude": 29.270899,
    "latitude": 61.808019
  },
  {
    "name": "HAMK HÄMEENLINNA VISAMÄKI",
    "address": "VANKANLÄHDE 11",
    "postal_code": "13500",
    "city": "HÄMEENLINNA",
    "website": "https://www.sodexo.fi",
    "admin": "SODEXO OY",
    "admin_website": "https://www.sodexo.fi",
    "longitude": 24.479722,
    "latitude": 60.976746
  },
  {
    "name": "LAMMIN BIOLOGINEN ASEMA",
    "address": "PÄÄJÄRVENTIE 320",
    "postal_code": "16900",
    "city": "LAMMI",
    "website": null,
    "admin": "HELSINGIN YLIOPISTO",
    "admin_website": null,
    "longitude": 25.039717,
    "latitude": 61.053563
  },
  {
    "name": "SAIRAALAN KEITTIÖ HÄMEENLINNA",
    "address": "AHVENISTONTIE 20",
    "postal_code": "13530",
    "city": "HÄMEENLINNA",
    "website": "https://ruoka.palmia.fi/fi/ravintola/ravintolat/",
    "admin": "PALMIA OY",
    "admin_website": "https://ruoka.palmia.fi/fi/ravintola/ravintolat/",
    "longitude": 24.415348,
    "latitude": 60.989545
  },
  {
    "name": "VANAJAVEDEN SAIRAALAN HENKILÖSTÖRAVINTOLA",
    "address": "VIIPURINTIE 1-3",
    "postal_code": "13200",
    "city": "HÄMEENLINNA",
    "website": "https://ruoka.palmia.fi/fi/ravintola/ravintolat/",
    "admin": "PALMIA OY",
    "admin_website": "https://ruoka.palmia.fi/fi/ravintola/ravintolat/",
    "longitude": 24.475355,
    "latitude": 60.998694
  },
  {
    "name": "HAMK SODEXO KAHVILA JA RAV.ROBOTTI (RIIHIMÄKI)",
    "address": "KAARTOKATU 2",
    "postal_code": "11100",
    "city": "RIIHIMÄKI",
    "website": "https://www.sodexo.fi",
    "admin": "SODEXO OY",
    "admin_website": "https://www.sodexo.fi",
    "longitude": 24.760879,
    "latitude": 60.734041
  },
  {
    "name": "SAIRAALAN KEITTIÖ RIIHIMÄKI",
    "address": "KONTI0NTIE 77",
    "postal_code": "11120",
    "city": "RIIHIMÄKI",
    "website": "https://ruoka.palmia.fi/fi/ravintola/ravintolat/",
    "admin": "PALMIA OY",
    "admin_website": "https://ruoka.palmia.fi/fi/ravintola/ravintolat/",
    "longitude": 24.743706,
    "latitude": 60.74646
  },
  {
    "name": "MUSTIALAN RUOKALA, HUTTULA",
    "address": "HUTTULANTIE 3",
    "postal_code": "31310",
    "city": "MUSTIALA",
    "website": "https://www.hamk.fi",
    "admin": "HÄMEEN AMMATTIKORKEAKOULU OY",
    "admin_website": "https://www.hamk.fi",
    "longitude": 26.106903,
    "latitude": 61.747916
  },
  {
    "name": "LEPAAN RUOKALA, ANNA",
    "address": "LEPAANTIE 129",
    "postal_code": "14610",
    "city": "LEPAA",
    "website": "https://www.hamk.fi",
    "admin": "HÄMEEN AMMATTIKORKEAKOULU OY",
    "admin_website": "https://www.hamk.fi",
    "longitude": 24.326524,
    "latitude": 61.116194
  },
  {
    "name": "CENTRIA AMK",
    "address": "TALONPOJANKATU 2",
    "postal_code": "67100",
    "city": "KOKKOLA",
    "website": "https://www.sodexo.fi",
    "admin": "SODEXO OY",
    "admin_website": "https://www.sodexo.fi",
    "longitude": 23.160741,
    "latitude": 63.833899
  },
  {
    "name": "LOUNASRAVINTOLA KIPPO",
    "address": "MARIANKATU 16-20",
    "postal_code": "67200",
    "city": "KOKKOLA",
    "website": "https://soite.fi/",
    "admin": "KESKI-POHJANMAAN HYVINVOINTIALUE",
    "admin_website": "https://soite.fi/",
    "longitude": 23.112166,
    "latitude": 63.846459
  },
  {
    "name": "ALKIO-OPISTON OPISKELIJARAVINTOLA SANTERI",
    "address": "TÄHTINIEMENTIE 26",
    "postal_code": "41800",
    "city": "KORPILAHTI",
    "website": "https://alkio.fi/opiskelijapalvelut/#ravintolasanteri",
    "admin": "ALKIO-OPISTON KANNATUSYHDISTYS RY",
    "admin_website": null,
    "longitude": 25.554656,
    "latitude": 62.010664
  },
  {
    "name": "FIILU TECHNOPOLIS OYJ",
    "address": "PIIPPUKATU 11",
    "postal_code": "40100",
    "city": "JYVÄSKYLÄ",
    "website": "https://www.compass-group.fi/",
    "admin": "COMPASS GROUP FINLAND OY",
    "admin_website": "https://www.compass-group.fi/",
    "longitude": 25.75719,
    "latitude": 62.24099
  },
  {
    "name": "JKL YO KIRJASTO LÄHDE, RAVINTOLA TAIDE JA KAHVILA TIEDE",
    "address": "SEMINAARINKATU 15 B-RAK",
    "postal_code": "40100",
    "city": "JYVÄSKYLÄ",
    "website": "https://www.compass-group.fi/",
    "admin": "COMPASS GROUP FINLAND OY",
    "admin_website": "https://www.compass-group.fi/",
    "longitude": 25.736585,
    "latitude": 62.237646
  },
  {
    "name": "JUVENES RAVINTOLA ANNA",
    "address": "KYMPINKATU 3 C",
    "postal_code": "40320",
    "city": "JYVÄSKYLÄ",
    "website": "https://juvenes.fi/anna/",
    "admin": "JUVENES OY",
    "admin_website": "https://www.juvenes.fi",
    "longitude": 25.758084,
    "latitude": 62.253304
  },
  {
    "name": "KAHVILA KVARKKI",
    "address": "SURVONTIE 9 YK-RAK.",
    "postal_code": "40500",
    "city": "JYVÄSKYLÄ",
    "website": "https://www.semma.fi",
    "admin": "SEMMA OY",
    "admin_website": "https://www.semma.fi",
    "longitude": 25.742624,
    "latitude": 62.230002
  },
  {
    "name": "KATRIINAN KASVISRAVINTOLA",
    "address": "KAUPPAKATU 11",
    "postal_code": "40100",
    "city": "JYVÄSKYLÄ",
    "website": "https://katriina.net/",
    "admin": "SAARIJÄRVI MISPELI OY",
    "admin_website": "https://katriina.net/",
    "longitude": 25.741128,
    "latitude": 62.239694
  },
  {
    "name": "OPISKELIJAKAHVILA SYKE",
    "address": "KESKUSSAIRAALANTIE 4 L-RAK.",
    "postal_code": "40600",
    "city": "JYVÄSKYLÄ",
    "website": "https://www.semma.fi",
    "admin": "SEMMA OY",
    "admin_website": "https://www.semma.fi",
    "longitude": 25.731341,
    "latitude": 62.235714
  },
  {
    "name": "RAVINTOLA CUBE",
    "address": "PIIPPUKATU 2",
    "postal_code": "40100",
    "city": "JYVÄSKYLÄ",
    "website": "https://juvenes.fi/cube/",
    "admin": "JUVENES OY",
    "admin_website": "https://www.juvenes.fi",
    "longitude": 25.759163,
    "latitude": 62.241482
  },
  {
    "name": "RAVINTOLA ILOKIVI",
    "address": "KESKUSSAIRAALANTIE 2",
    "postal_code": "40600",
    "city": "JYVÄSKYLÄ",
    "website": "https://www.ilokivi.fi/lounas/",
    "admin": "SEMMA OY",
    "admin_website": "https://www.semma.fi",
    "longitude": 25.730754,
    "latitude": 62.234708
  },
  {
    "name": "RAVINTOLA LOZZI",
    "address": "KESKUSSAIRAALANTIE 4 (P-RAK.)",
    "postal_code": "40600",
    "city": "JYVÄSKYLÄ",
    "website": "https://www.semma.fi",
    "admin": "SEMMA OY",
    "admin_website": "https://www.semma.fi",
    "longitude": 25.731341,
    "latitude": 62.235714
  },
  {
    "name": "RAVINTOLA MAIJA",
    "address": "AHLMANINKATU 2 (MA A-RAK.)",
    "postal_code": "40100",
    "city": "JYVÄSKYLÄ",
    "website": "https://www.semma.fi",
    "admin": "SEMMA OY",
    "admin_website": "https://www.semma.fi",
    "longitude": 25.734049,
    "latitude": 62.231042
  },
  {
    "name": "RAVINTOLA PIATO (821408)",
    "address": "MATTILANNIEMI 2",
    "postal_code": "40100",
    "city": "JYVÄSKYLÄ",
    "website": "https://www.semma.fi",
    "admin": "SEMMA OY",
    "admin_website": "https://www.semma.fi",
    "longitude": 25.737076,
    "latitude": 62.231746
  },
  {
    "name": "RAVINTOLA POUKAMA",
    "address": "HOITAJANTIE 3",
    "postal_code": "40620",
    "city": "JYVÄSKYLÄ",
    "website": null,
    "admin": "KESKI-SUOMEN HYVINVOINTIALUE",
    "admin_website": null,
    "longitude": 25.704722,
    "latitude": 62.229947
  },
  {
    "name": "RAVINTOLA TWIST & CAFé CURVE",
    "address": "RAJAKATU 35",
    "postal_code": "40200",
    "city": "JYVÄSKYLÄ",
    "website": "https://juvenes.fi/ravintolat-jyvaskyla/",
    "admin": "JUVENES OY",
    "admin_website": "https://www.juvenes.fi",
    "longitude": 25.74298,
    "latitude": 62.251173
  },
  {
    "name": "RAVINTOLA UNO",
    "address": "ALVAR AALLON KATU 9",
    "postal_code": "40600",
    "city": "JYVÄSKYLÄ",
    "website": "https://www.semma.fi",
    "admin": "SEMMA OY",
    "admin_website": "https://www.semma.fi",
    "longitude": 25.733253,
    "latitude": 62.233918
  },
  {
    "name": "RAVINTOLA YLISTÖ",
    "address": "SURVONTIE 9 YFL-RAK.",
    "postal_code": "40500",
    "city": "JYVÄSKYLÄ",
    "website": "https://www.semma.fi",
    "admin": "SEMMA OY",
    "admin_website": "https://www.semma.fi",
    "longitude": 25.742624,
    "latitude": 62.230002
  },
  {
    "name": "RENTUKKA",
    "address": "TAITONIEKANTIE 9",
    "postal_code": "40740",
    "city": "JYVÄSKYLÄ",
    "website": "https://www.semma.fi",
    "admin": "SEMMA OY",
    "admin_website": "https://www.semma.fi",
    "longitude": 25.709082,
    "latitude": 62.248319
  },
  {
    "name": "UUSI MUSIIKKIKAMPUS, RAVINTOLA FUUGA",
    "address": "PITKÄKATU 18-22",
    "postal_code": "40100",
    "city": "JYVÄSKYLÄ",
    "website": "https://www.gradia.fi/palvelut/ravintolat-ja-ruoka",
    "admin": "JYVÄSKYLÄN KOULUTUSKUNTAYHTYMÄ GRADIA",
    "admin_website": "https://www.gradia.fi/palvelut/ravintolat-ja-ruoka",
    "longitude": 25.731464,
    "latitude": 62.23916
  },
  {
    "name": "KONNEVEDEN TUTKIMUSASEMA",
    "address": "SIRKKAMÄENTIE 220",
    "postal_code": "44300",
    "city": "KONNEVESI",
    "website": null,
    "admin": "JYVÄSKYLÄN YLIOPISTO",
    "admin_website": null,
    "longitude": 26.346181,
    "latitude": 62.61655
  },
  {
    "name": "RUOKALA TÄHKÄ",
    "address": "UURAISTENTIE 240",
    "postal_code": "43130",
    "city": "TARVAALA",
    "website": "https://www.poke.fi",
    "admin": "ÄÄNEKOSKEN AMMATILLISEN KOULUTUKSEN KY",
    "admin_website": "https://www.poke.fi",
    "longitude": 25.308364715220964,
    "latitude": 62.66685432314851
  },
  {
    "name": "KOTKA KAMPUS XAMK",
    "address": "TORNATORINTIE 102",
    "postal_code": "48100",
    "city": "KOTKA",
    "website": null,
    "admin": "COMPASS GROUP FINLAND OY",
    "admin_website": "https://www.compass-group.fi/",
    "longitude": 26.945965,
    "latitude": 60.471085
  },
  {
    "name": "EDUCAFé",
    "address": "KAUPPALANKATU 14, YRITYSPALVELUTALO KOHOA",
    "postal_code": "45100",
    "city": "KOUVOLA",
    "website": null,
    "admin": "EDUKO KOULUTUS- JA YRITYSPALVELUT OY",
    "admin_website": null,
    "longitude": 26.703058,
    "latitude": 60.869847
  },
  {
    "name": "KASARMIRAVINTOLA",
    "address": "PARAATIKENTTÄ 5",
    "postal_code": "45100",
    "city": "KOUVOLA",
    "website": "https://www.compass-group.fi/",
    "admin": "COMPASS GROUP FINLAND OY",
    "admin_website": "https://www.compass-group.fi/",
    "longitude": 26.681792,
    "latitude": 60.873502
  },
  {
    "name": "RAVINTOLA PAJA",
    "address": "KUUSELANKATU 1",
    "postal_code": "45100",
    "city": "KOUVOLA",
    "website": "https://www.xamkravintolat.fi/",
    "admin": "KAAKKOIS-SUOMEN AMMATTIKORKEAKOULU OY",
    "admin_website": "https://www.xamkravintolat.fi/",
    "longitude": 26.679562,
    "latitude": 60.872528
  },
  {
    "name": "RAVINTOLA SILMU, TAMPEREEN SEUDUN AMMATTIOPISTO TREDU",
    "address": "METSÄTIE 1",
    "postal_code": "34300",
    "city": "KURU",
    "website": "https://www.compass-group.fi/",
    "admin": "COMPASS GROUP FINLAND OY",
    "admin_website": "https://www.compass-group.fi/",
    "longitude": 23.718802,
    "latitude": 61.874344
  },
  {
    "name": "KILPISJÄRVEN BIOLOGINEN ASEMA",
    "address": "KÄSIVARRENTIE 14622",
    "postal_code": "99490",
    "city": "KILPISJÄRVI",
    "website": null,
    "admin": "HELSINGIN YLIOPISTO",
    "admin_website": null,
    "longitude": 20.790594,
    "latitude": 69.050259
  },
  {
    "name": "RAVINTOLA LIPPO",
    "address": "TIETOKATU 1",
    "postal_code": "94600",
    "city": "KEMI",
    "website": "http://www.compass-group.fi",
    "admin": "COMPASS GROUP FINLAND OY",
    "admin_website": "https://www.compass-group.fi/",
    "longitude": 24.582641,
    "latitude": 65.754341
  },
  {
    "name": "ALUEKEITTIÖ 1:N OPPILASRAVINTOLA",
    "address": "SEMINAARINKATU 10",
    "postal_code": "98120",
    "city": "KEMIJÄRVI",
    "website": null,
    "admin": "KEMIJÄRVEN KAUPUNKI, RUOKAPALVELU",
    "admin_website": null,
    "longitude": 27.392457,
    "latitude": 66.719377
  },
  {
    "name": "LAPPONIAN KEITTIÖ",
    "address": "SAIRAALAKATU 9",
    "postal_code": "98100",
    "city": "KEMIJÄRVI",
    "website": "https://lapha.fi/",
    "admin": "LAPIN HYVINVOINTIALUE",
    "admin_website": "https://lapha.fi/",
    "longitude": 27.442797,
    "latitude": 66.704877
  },
  {
    "name": "FELLI/ LAPIN YLIOPISTO (0602)",
    "address": "YLIOPISTONKATU 8",
    "postal_code": "96300",
    "city": "ROVANIEMI",
    "website": "https://www.compass-group.fi/",
    "admin": "COMPASS GROUP FINLAND OY",
    "admin_website": "https://www.compass-group.fi/",
    "longitude": 25.714207,
    "latitude": 66.485255
  },
  {
    "name": "HENKILÖSTÖRAVINTOLA KARPALO",
    "address": "OUNASRINTEENTIE 22",
    "postal_code": "96400",
    "city": "ROVANIEMI",
    "website": "https://lapha.fi/",
    "admin": "LAPIN HYVINVOINTIALUE",
    "admin_website": "https://lapha.fi/",
    "longitude": 25.773771,
    "latitude": 66.492503
  },
  {
    "name": "KUUKKELI/ VIRASTOTALO ROVANIEMI",
    "address": "HALLITUSKATU 3 A",
    "postal_code": "96100",
    "city": "ROVANIEMI",
    "website": "https://www.compass-group.fi/",
    "admin": "COMPASS GROUP FINLAND OY",
    "admin_website": "https://www.compass-group.fi/",
    "longitude": 25.728095,
    "latitude": 66.496667
  },
  {
    "name": "LAPIN YO:N HARJOITTELUKOULU LUMIKELLO (0603)",
    "address": "POHJOLANKATU 23",
    "postal_code": "96100",
    "city": "ROVANIEMI",
    "website": "https://www.compass-group.fi/",
    "admin": "COMPASS GROUP FINLAND OY",
    "admin_website": "https://www.compass-group.fi/",
    "longitude": 25.716756,
    "latitude": 66.503662
  },
  {
    "name": "RAVINTOLA PUHTI",
    "address": "HIIHTOMAJANTIE 2",
    "postal_code": "96400",
    "city": "ROVANIEMI",
    "website": null,
    "admin": "ROVANIEMEN KOULUTUSKUNTAYHTYMÄ",
    "admin_website": "https://www.redu.fi",
    "longitude": 25.767534,
    "latitude": 66.497134
  },
  {
    "name": "RAVINTOLA TEKUILA JA KAHVILA LUMEN",
    "address": "JOKIVÄYLÄ 11",
    "postal_code": "96300",
    "city": "ROVANIEMI",
    "website": "https://www.foodandco.fi/",
    "admin": "COMPASS GROUP FINLAND OY",
    "admin_website": "https://www.compass-group.fi/",
    "longitude": 25.721551,
    "latitude": 66.481039
  },
  {
    "name": "RAVINTOLA PIKANTTI",
    "address": "URHEILUKATU 6",
    "postal_code": "95400",
    "city": "TORNIO",
    "website": "https://www.lappia.fi/",
    "admin": "KEMI-TORNIONLAAKSON KOULUTUSKUNTAYHTYMÄ LAPPIA",
    "admin_website": "https://www.lappia.fi/",
    "longitude": 24.139011,
    "latitude": 65.852063
  },
  {
    "name": "LAPIN TUTKIMUSLAITOS KEVO",
    "address": "KEVONTIE 470",
    "postal_code": "99980",
    "city": "UTSJOKI",
    "website": null,
    "admin": "TURUN YLIOPISTO",
    "admin_website": null,
    "longitude": 27.009561,
    "latitude": 69.755968
  },
  {
    "name": "HYYTIÄLÄN METSÄASEMA",
    "address": "HYYTIÄLÄNTIE 124",
    "postal_code": "35500",
    "city": "KORKEAKOSKI",
    "website": null,
    "admin": "HELSINGIN YLIOPISTO",
    "admin_website": null,
    "longitude": 26.913984,
    "latitude": 60.535696
  },
  {
    "name": "CAFÉ PINNI",
    "address": "KANSLERINRINNE 1",
    "postal_code": "33014",
    "city": "TAMPEREEN YLIOPISTO",
    "website": "https://juvenes.fi/pinni/",
    "admin": "JUVENES OY",
    "admin_website": "https://www.juvenes.fi",
    "longitude": 23.777713,
    "latitude": 61.493326
  },
  {
    "name": "CAMPUSRAVITA OY",
    "address": "KUNTOKATU 3",
    "postal_code": "33520",
    "city": "TAMPERE",
    "website": "https://www.campusravita.fi/ravintolat-ja-kahvila/",
    "admin": "CAMPUSRAVITA OY",
    "admin_website": "https://www.campusravita.fi/",
    "longitude": 23.806033,
    "latitude": 61.503774
  },
  {
    "name": "FINN-MEDIN RAVINTOLA",
    "address": "ARVO YLPÖN KATU 6",
    "postal_code": "33520",
    "city": "TAMPERE",
    "website": "https://pikante.fi/",
    "admin": "PIRKANMAAN KANSANTERVEYS RY",
    "admin_website": "https://pikante.fi/",
    "longitude": 23.812814,
    "latitude": 61.506198
  },
  {
    "name": "MIEKKALEIJONA",
    "address": "VAAJAKATU 2",
    "postal_code": "33720",
    "city": "TAMPERE",
    "website": "https://leijonacatering.fi/",
    "admin": "LEIJONA CATERING OY",
    "admin_website": "https://leijonacatering.fi/",
    "longitude": 23.853195,
    "latitude": 61.452794
  },
  {
    "name": "MINERVA/TAMPEREEN YLIOPISTO (0815)",
    "address": "KANSLERINRINNE 1 B",
    "postal_code": "33100",
    "city": "TAMPERE",
    "website": "https://www.compass-group.fi/",
    "admin": "COMPASS GROUP FINLAND OY",
    "admin_website": "https://www.compass-group.fi/",
    "longitude": 23.777713,
    "latitude": 61.493326
  },
  {
    "name": "RAVINTOLA ARVO JA CAFÉ LEA",
    "address": "ARVO YLPÖN KATU 34",
    "postal_code": "33520",
    "city": "TAMPERE",
    "website": "https://www.juvenes.fi",
    "admin": "JUVENES OY",
    "admin_website": "https://www.juvenes.fi",
    "longitude": 23.822921,
    "latitude": 61.50714
  },
  {
    "name": "RAVINTOLA HERTSI (TTY-TIETOTALO)",
    "address": "KORKEAKOULUNKATU 1",
    "postal_code": "33720",
    "city": "TAMPERE",
    "website": "https://www.sodexo.fi/ravintolat/ravintola-hertsi",
    "admin": "SODEXO OY",
    "admin_website": "https://www.sodexo.fi",
    "longitude": 23.856846,
    "latitude": 61.449775
  },
  {
    "name": "RAVINTOLA LINNA TAMPEREEN YO",
    "address": "KALEVANTIE 5",
    "postal_code": "33100",
    "city": "TAMPERE",
    "website": "https://www.sodexo.fi/ravintolat/ravintola-linna",
    "admin": "SODEXO OY",
    "admin_website": "https://www.sodexo.fi",
    "longitude": 23.77796,
    "latitude": 61.495005
  },
  {
    "name": "RAVINTOLA MISTELI",
    "address": "TEISKONTIE 35, TAYS P-RAKENNUS",
    "postal_code": "33520",
    "city": "TAMPERE",
    "website": "https://pikante.fi/",
    "admin": "PIRKANMAAN KANSANTERVEYS RY",
    "admin_website": "https://pikante.fi/",
    "longitude": 23.815529,
    "latitude": 61.504649
  },
  {
    "name": "RAVINTOLA NEWTON JA CAFÉ KONEHUONE",
    "address": "KORKEAKOULUNKATU 6 A",
    "postal_code": "33720",
    "city": "TAMPERE",
    "website": "https://www.juvenes.fi",
    "admin": "JUVENES OY",
    "admin_website": "https://www.juvenes.fi",
    "longitude": 23.858711,
    "latitude": 61.448872
  },
  {
    "name": "RAVINTOLA RATA",
    "address": "UIMALANKATU 1 A",
    "postal_code": "33540",
    "city": "TAMPERE",
    "website": "https://www.juvenes.fi",
    "admin": "JUVENES OY",
    "admin_website": "https://www.juvenes.fi",
    "longitude": 23.802476,
    "latitude": 61.50163
  },
  {
    "name": "RAVINTOLA TORI MEDIAPOLIS",
    "address": "TOHLOPINRANTA 31",
    "postal_code": "33270",
    "city": "TAMPERE",
    "website": "https://www.isspalvelut.fi/ravintolapalvelut",
    "admin": "ISS PALVELUT OY",
    "admin_website": "https://www.isspalvelut.fi/ravintolapalvelut",
    "longitude": 23.648658,
    "latitude": 61.506555
  },
  {
    "name": "REAKTORI (810812)TAMPEREEN TEKNILLINEN YLIOPISTO",
    "address": "KORKEAKOULUNKATU 7",
    "postal_code": "33720",
    "city": "TAMPERE",
    "website": "https://www.compass-group.fi/",
    "admin": "COMPASS GROUP FINLAND OY",
    "admin_website": "https://www.compass-group.fi/",
    "longitude": 23.857579,
    "latitude": 61.44974
  },
  {
    "name": "RESTAURANT FRENCKELL & PIHA",
    "address": "FRENCKELLINAUKIO 2 H",
    "postal_code": "33210",
    "city": "TAMPERE",
    "website": "https://juvenes.fi/frenckell/",
    "admin": "JUVENES OY",
    "admin_website": "https://www.juvenes.fi",
    "longitude": 23.76086,
    "latitude": 61.500085
  },
  {
    "name": "YLIOPISTON RAVINTOLA, ALAKUPPILA, VEGESÅÅSBAR, TOIVO",
    "address": "KALEVANTIE 4",
    "postal_code": "33014",
    "city": "TAMPEREEN YLIOPISTO",
    "website": "https://www.juvenes.fi",
    "admin": "JUVENES OY",
    "admin_website": "https://www.juvenes.fi",
    "longitude": 23.779421,
    "latitude": 61.493514
  },
  {
    "name": "HAMK VALKEAKOSKI",
    "address": "TIETOTIE 1",
    "postal_code": "37630",
    "city": "VALKEAKOSKI",
    "website": "https://www.sodexo.fi",
    "admin": "SODEXO OY",
    "admin_website": "https://www.sodexo.fi",
    "longitude": 23.997129,
    "latitude": 61.279565
  },
  {
    "name": "KAHVILA SENTTI (0824)",
    "address": "TIETOTIE 1",
    "postal_code": "37630",
    "city": "VALKEAKOSKI",
    "website": "https://www.compass-group.fi/",
    "admin": "COMPASS GROUP FINLAND OY",
    "admin_website": "https://www.compass-group.fi/",
    "longitude": 23.997129,
    "latitude": 61.279565
  },
  {
    "name": "RESTAURANT ALLEGRO",
    "address": "KAUPPIAANKATU 10",
    "postal_code": "68600",
    "city": "PIETARSAARI",
    "website": null,
    "admin": "AWM AB",
    "admin_website": null,
    "longitude": 22.705475,
    "latitude": 63.673799
  },
  {
    "name": "CAFé TECHNO",
    "address": "BOMULLSGRÄND 3",
    "postal_code": "65200",
    "city": "VAASA",
    "website": "https://www.cafetechno.fi/fi/",
    "admin": "HUE & BER ÖB",
    "admin_website": "https://www.cafetechno.fi/fi/",
    "longitude": 21.59403,
    "latitude": 63.104139
  },
  {
    "name": "CAFÉ ANN-MARI",
    "address": "PB 311, STRANDGATAN 2",
    "postal_code": "65101",
    "city": "VAASA",
    "website": null,
    "admin": "ISS PALVELUT OY/CATERING SERVICES",
    "admin_website": null,
    "longitude": 21.609726,
    "latitude": 63.088504
  },
  {
    "name": "CAFÉ HERMES/HANKEN",
    "address": "KAUPPAPUISTIKKO 2",
    "postal_code": "65100",
    "city": "VAASA",
    "website": "https://www.compass-group.fi/",
    "admin": "COMPASS GROUP FINLAND OY",
    "admin_website": "https://www.compass-group.fi/",
    "longitude": 21.612834,
    "latitude": 63.098426
  },
  {
    "name": "RAVINTOLA ALERE JA CAFÉ ALERE",
    "address": "WOLFFINTIE 27-31",
    "postal_code": "65200",
    "city": "VAASA",
    "website": "https://www.juvenes.fi",
    "admin": "JUVENES OY",
    "admin_website": "https://www.juvenes.fi",
    "longitude": 21.594637,
    "latitude": 63.106322
  },
  {
    "name": "RAVINTOLA COTTON CLUB",
    "address": "YLIOPISTONRANTA 2",
    "postal_code": "65200",
    "city": "VAASA",
    "website": "https://www.cotton-club.fi/",
    "admin": "OY VAASAN KLUBI RAVINTOLA",
    "admin_website": "https://www.cotton-club.fi/",
    "longitude": 21.596247,
    "latitude": 63.103672
  },
  {
    "name": "RAVINTOLA SERVERI JA CAFÉ WOLFF´S STREET",
    "address": "WOLFFINTIE 30",
    "postal_code": "65200",
    "city": "VAASA",
    "website": "https://juvenes.fi/serveri/",
    "admin": "JUVENES OY",
    "admin_website": "https://www.juvenes.fi",
    "longitude": 21.590972,
    "latitude": 63.106361
  },
  {
    "name": "RAVINTOLA WASA VAASA (3597)",
    "address": "HIETALAHDENKATU 2-4",
    "postal_code": "65130",
    "city": "VAASA",
    "website": null,
    "admin": "COMPASS GROUP FINLAND OY",
    "admin_website": "https://www.compass-group.fi/",
    "longitude": 21.61687,
    "latitude": 63.084134
  },
  {
    "name": "RESTAURANG ALEXANDER",
    "address": "PB 311, STRANDGATAN 2",
    "postal_code": "65101",
    "city": "VAASA",
    "website": null,
    "admin": "ISS PALVELUT OY/CATERING SERVICES",
    "admin_website": null,
    "longitude": 21.609726,
    "latitude": 63.088504
  },
  {
    "name": "RESTAURANG W33",
    "address": "WOLFFSKAVÄGEN 33",
    "postal_code": "65200",
    "city": "VAASA",
    "website": "https://www.restaurangw33.com/",
    "admin": "OY MIKAEL ORLO AB",
    "admin_website": "https://www.restaurangw33.com/",
    "longitude": 21.595649,
    "latitude": 63.105404
  },
  {
    "name": "RESTAURANT AUGUST",
    "address": "YLIOPISTONRANTA 10",
    "postal_code": "65200",
    "city": "VAASA",
    "website": null,
    "admin": "WASA MARINA OY",
    "admin_website": null,
    "longitude": 21.593952,
    "latitude": 63.103583
  },
  {
    "name": "VAASAN KESKUSSAIRAALAN RUOKASALI",
    "address": "HIETALAHDENKATU 2-4",
    "postal_code": "65130",
    "city": "VAASA",
    "website": "https://www.teese.fi/ruokapalvelut/",
    "admin": "TEESE BOTNIA OY AB",
    "admin_website": "https://www.teese.fi/ruokapalvelut/",
    "longitude": 21.61687,
    "latitude": 63.084134
  },
  {
    "name": "VAASAN YLIOPISTO, RAVINTOLA MATHILDA JA CAFé OSKAR",
    "address": "WOLFFINKATU 32",
    "postal_code": "65200",
    "city": "VAASA",
    "website": null,
    "admin": "COMPASS GROUP FINLAND OY",
    "admin_website": "https://www.compass-group.fi/",
    "longitude": 21.593066,
    "latitude": 63.105496
  },
  {
    "name": "CARELIA/ITÄ-SUOMEN YLIOPISTO (0417)",
    "address": "YLIOPISTOKATU 4",
    "postal_code": "80100",
    "city": "JOENSUU",
    "website": "https://www.compass-group.fi/",
    "admin": "COMPASS GROUP FINLAND OY",
    "admin_website": "https://www.compass-group.fi/",
    "longitude": 29.74517,
    "latitude": 62.603746
  },
  {
    "name": "FUTURA JA KAHVILA METRIA ITÄ-SUOMEN YO JOENSUU (0420)",
    "address": "YLIOPISTOKATU 7",
    "postal_code": "80100",
    "city": "JOENSUU",
    "website": "https://www.compass-group.fi/",
    "admin": "COMPASS GROUP FINLAND OY",
    "admin_website": "https://www.compass-group.fi/",
    "longitude": 29.740551,
    "latitude": 62.605411
  },
  {
    "name": "JAKELUPISTE BOREALIS / ITÄ-SUOMEN YO (0423)",
    "address": "YLIOPISTOKATU 7",
    "postal_code": "80100",
    "city": "JOENSUU",
    "website": "https://www.compass-group.fi/",
    "admin": "COMPASS GROUP FINLAND OY",
    "admin_website": "https://www.compass-group.fi/",
    "longitude": 29.740551,
    "latitude": 62.605411
  },
  {
    "name": "OPISKELIJAKATU (0433) / ITÄ-SUOMEN YLIOPISTO, JOENSUU",
    "address": "OPISKELIJANKATU 7",
    "postal_code": "80130",
    "city": "JOENSUU",
    "website": "https://www.compass-group.fi/",
    "admin": "COMPASS GROUP FINLAND OY",
    "admin_website": "https://www.compass-group.fi/",
    "longitude": 29.746931,
    "latitude": 62.605456
  },
  {
    "name": "RAVINTOLA ASKEL",
    "address": "NOLJAKANTIE 17 A C",
    "postal_code": "80130",
    "city": "JOENSUU",
    "website": null,
    "admin": "POLKKA, POHJOIS-KARJALAN TUKIPALVELUT OY",
    "admin_website": null,
    "longitude": 29.725014,
    "latitude": 62.615631
  },
  {
    "name": "RAVINTOLA NATURA (0421)",
    "address": "YLIOPISTOKATU 4",
    "postal_code": "80100",
    "city": "JOENSUU",
    "website": "https://www.compass-group.fi/",
    "admin": "COMPASS GROUP FINLAND OY",
    "admin_website": "https://www.compass-group.fi/",
    "longitude": 29.74517,
    "latitude": 62.603746
  },
  {
    "name": "RAVINTOLA POHJANTIKKA",
    "address": "TIKKAMÄENTIE 16",
    "postal_code": "80210",
    "city": "JOENSUU",
    "website": null,
    "admin": "POLKKA, POHJOIS-KARJALAN TUKIPALVELUT OY",
    "admin_website": null,
    "longitude": 29.779628,
    "latitude": 62.592482
  },
  {
    "name": "SOLINA KARELIA AMK TIKKARINTEEN KAMPUS (0424)",
    "address": "TIKKARINNE 9",
    "postal_code": "80200",
    "city": "JOENSUU",
    "website": "https://www.compass-group.fi/",
    "admin": "COMPASS GROUP FINLAND OY",
    "admin_website": "https://www.compass-group.fi/",
    "longitude": 29.779014,
    "latitude": 62.588664
  },
  {
    "name": "WIRE/KARELIA AMK WÄRTSILÄN KAMPUS (0447)",
    "address": "KARJALANKATU 3",
    "postal_code": "80200",
    "city": "JOENSUU",
    "website": "https://www.compass-group.fi/",
    "admin": "COMPASS GROUP FINLAND OY",
    "admin_website": "https://www.compass-group.fi/",
    "longitude": 29.777153,
    "latitude": 62.596079
  },
  {
    "name": "KITEEN KOULUTUSYKSIKKÖ, RAVINTOLA PAUSSI",
    "address": "SAVIKONTIE 13",
    "postal_code": "82500",
    "city": "KITEE",
    "website": null,
    "admin": "POHJOIS-KARJALAN KOULUTUSKUNTAYHTYMÄ, RIVERIA",
    "admin_website": null,
    "longitude": 30.160016,
    "latitude": 62.091667
  },
  {
    "name": "OPPILASRAVINTOLA SALVIA",
    "address": "OULANGANTIE 1",
    "postal_code": "93600",
    "city": "KUUSAMO",
    "website": null,
    "admin": "PPP-KÖÖKKI OY",
    "admin_website": null,
    "longitude": 29.172748,
    "latitude": 65.965235
  },
  {
    "name": "OAS OULASKANKAAN SAIRAALA RUOKAPALVELUT",
    "address": "OULAISTENKATU 5",
    "postal_code": "86300",
    "city": "OULAINEN",
    "website": null,
    "admin": "PPE-KÖÖKKI OY",
    "admin_website": null,
    "longitude": 24.839085,
    "latitude": 64.267622
  },
  {
    "name": "ALWARI OAMK KONTINKANKAAN KAMPUS (0226)",
    "address": "KIVIHARJUNTIE 8",
    "postal_code": "90220",
    "city": "OULU",
    "website": "https://www.compass-group.fi/",
    "admin": "COMPASS GROUP FINLAND OY",
    "admin_website": "https://www.compass-group.fi/",
    "longitude": 25.512378,
    "latitude": 65.008405
  },
  {
    "name": "HEALTH TO ORGANIC CAFE & DELI CAMPUS & CAMPUS SHOP",
    "address": "PAAVO HAVAKSEN TIE 5",
    "postal_code": "90014",
    "city": "OULUN YLIOPISTO",
    "website": "https://www.uniresta.fi",
    "admin": "UNIRESTA OY",
    "admin_website": "https://www.uniresta.fi",
    "longitude": 25.467571,
    "latitude": 65.057623
  },
  {
    "name": "ODL KANTAKORTTELI (1694)",
    "address": "ALBERTINKATU 16",
    "postal_code": "90100",
    "city": "OULU",
    "website": "https://www.compass-group.fi/",
    "admin": "COMPASS GROUP FINLAND OY",
    "admin_website": "https://www.compass-group.fi/",
    "longitude": 25.470045,
    "latitude": 65.009016
  },
  {
    "name": "OULUN NORMAALIKOULU ALA-ASTE LINNANMAA(237)",
    "address": "YLIOPISTONKATU 48",
    "postal_code": "90570",
    "city": "OULU",
    "website": "https://www.compass-group.fi/",
    "admin": "COMPASS GROUP FINLAND OY",
    "admin_website": "https://www.compass-group.fi/",
    "longitude": 25.473747,
    "latitude": 65.062246
  },
  {
    "name": "OULUN YO:N HARJOITTELUKOULU (0242) KOSKELAN YKSIKKÖ",
    "address": "TULLIMIEHENKATU 8",
    "postal_code": "90560",
    "city": "OULU",
    "website": "https://www.compass-group.fi/",
    "admin": "COMPASS GROUP FINLAND OY",
    "admin_website": "https://www.compass-group.fi/",
    "longitude": 25.450753,
    "latitude": 65.046188
  },
  {
    "name": "RAVINTOLA APILA",
    "address": "KAJAANINTIE 50",
    "postal_code": "90220",
    "city": "OULU",
    "website": "https://pohde.fi/",
    "admin": "POHJOIS-POHJANMAAN HYVINVOINTIALUE",
    "admin_website": "https://pohde.fi/",
    "longitude": 25.52041,
    "latitude": 65.009647
  },
  {
    "name": "RAVINTOLA JULINIA",
    "address": "BIOLOGINTIE",
    "postal_code": "90014",
    "city": "OULUN YLIOPISTO",
    "website": "https://www.uniresta.fi/julinia/",
    "admin": "UNIRESTA OY",
    "admin_website": "https://www.uniresta.fi",
    "longitude": 25.462204,
    "latitude": 65.060456
  },
  {
    "name": "RAVINTOLA KANERVA JA RAVINTOLA VON BAGH",
    "address": "PELTOLANTIE 5",
    "postal_code": "90230",
    "city": "OULU",
    "website": "https://pohde.fi/",
    "admin": "POHJOIS-POHJANMAAN HYVINVOINTIALUE",
    "admin_website": "https://pohde.fi/",
    "longitude": 25.51432,
    "latitude": 65.014475
  },
  {
    "name": "RAVINTOLA KOTKA, RAVINTOLA LOKKI JA RAVINTOLA KIELO",
    "address": "KAJAANINTIE 50",
    "postal_code": "90220",
    "city": "OULU",
    "website": "https://pohde.fi/",
    "admin": "POHJOIS-POHJANMAAN HYVINVOINTIALUE",
    "admin_website": "https://pohde.fi/",
    "longitude": 25.52041,
    "latitude": 65.009647
  },
  {
    "name": "RAVINTOLA LIPASTO",
    "address": "BIOLOGINTIE",
    "postal_code": "90014",
    "city": "OULUN YLIOPISTO",
    "website": "https://www.uniresta.fi/lipasto/",
    "admin": "UNIRESTA OY",
    "admin_website": "https://www.uniresta.fi",
    "longitude": 25.462204,
    "latitude": 65.060456
  },
  {
    "name": "RAVINTOLA MEDISIINA, OULUN YO KONTINKANKAAN KAMPUS",
    "address": "KIVIHARJUNTIE 4",
    "postal_code": "90220",
    "city": "OULU",
    "website": "https://www.sodexo.fi/opiskelijaravintolat",
    "admin": "SODEXO OY",
    "admin_website": "https://www.sodexo.fi",
    "longitude": 25.509502,
    "latitude": 65.008461
  },
  {
    "name": "RAVINTOLA PEKURI",
    "address": "TORIKATU 15-17",
    "postal_code": "90100",
    "city": "OULU",
    "website": "https://www.uniresta.fi",
    "admin": "UNIRESTA OY",
    "admin_website": "https://www.uniresta.fi",
    "longitude": 25.468945,
    "latitude": 65.012015
  },
  {
    "name": "RAVINTOLA PRELUDI",
    "address": "LEEVI MADETOJAN KATU 1-3",
    "postal_code": "90140",
    "city": "OULU",
    "website": "https://www.uniresta.fi",
    "admin": "UNIRESTA OY",
    "admin_website": "https://www.uniresta.fi",
    "longitude": 25.48194,
    "latitude": 65.005085
  },
  {
    "name": "RESTAURANT FOOBAR",
    "address": "PENTTI KAITERAN KATU 1, OVI R",
    "postal_code": "90014",
    "city": "OULUN YLIOPISTO",
    "website": "https://juvenes.fi/foobar/",
    "admin": "JUVENES OY",
    "admin_website": "https://www.juvenes.fi",
    "longitude": 25.464163,
    "latitude": 65.059029
  },
  {
    "name": "RESTAURANT KERTTU",
    "address": "PENTTI KAITERAN KATU 1",
    "postal_code": "90570",
    "city": "OULU",
    "website": "https://www.juvenes.fi",
    "admin": "JUVENES OY",
    "admin_website": "https://www.juvenes.fi",
    "longitude": 25.464163,
    "latitude": 65.059029
  },
  {
    "name": "RESTAURANT MARA",
    "address": "PENTTI KAITERAN KATU 1, OVI C",
    "postal_code": "90014",
    "city": "OULUN YLIOPISTO",
    "website": "https://juvenes.fi/mara/",
    "admin": "JUVENES OY",
    "admin_website": "https://www.juvenes.fi",
    "longitude": 25.464163,
    "latitude": 65.059029
  },
  {
    "name": "RESTAURANT VOLTTI",
    "address": "PENTTI KAITERAN KATU 1, OVI E",
    "postal_code": "90014",
    "city": "OULUN YLIOPISTO",
    "website": "https://juvenes.fi/voltti/",
    "admin": "JUVENES OY",
    "admin_website": "https://www.juvenes.fi",
    "longitude": 25.464163,
    "latitude": 65.059029
  },
  {
    "name": "AMMATTIOPISTON KEITTIÖ",
    "address": "TERVAHOVINKATU 2",
    "postal_code": "92100",
    "city": "RAAHE",
    "website": "https://raahe.fi/elinymparisto/ateria-ja-puhtaus",
    "admin": "RAAHEN KAUPUNKI / ATERIA- JA PUHTAUSPALVELUT",
    "admin_website": "https://raahe.fi/elinymparisto/ateria-ja-puhtaus",
    "longitude": 24.477067,
    "latitude": 64.677731
  },
  {
    "name": "LYBECKERIN KEITTIÖ",
    "address": "SOFIA LYBECKERIN KATU 1",
    "postal_code": "92100",
    "city": "RAAHE",
    "website": "https://raahe.fi/elinymparisto/ateria-ja-puhtaus",
    "admin": "RAAHEN KAUPUNKI / ATERIA- JA PUHTAUSPALVELUT",
    "admin_website": "https://raahe.fi/elinymparisto/ateria-ja-puhtaus",
    "longitude": 24.485902,
    "latitude": 64.688922
  },
  {
    "name": "MESSI/KPAMK YLIVIESKAN YKSIKKÖ TEKNIIKKA (3565)",
    "address": "VIERIMAANTIE 7",
    "postal_code": "84100",
    "city": "YLIVIESKA",
    "website": "https://www.compass-group.fi/",
    "admin": "COMPASS GROUP FINLAND OY",
    "admin_website": "https://www.compass-group.fi/",
    "longitude": 24.516741,
    "latitude": 64.075063
  },
  {
    "name": "SAVONIA AMMATTIKORKEAKOULU, IISALMEN YKSIKÖN RAVINTOLA",
    "address": "HAUKISAARENTIE 2",
    "postal_code": "74130",
    "city": "IISALMI",
    "website": null,
    "admin": "EDUSAVO OY",
    "admin_website": null,
    "longitude": 27.216301,
    "latitude": 63.541365
  },
  {
    "name": "AMICA-RAVINTOLA CANTHIA (0436)",
    "address": "YLIOPISTONRANTA 1 C, B PORRAS",
    "postal_code": "70210",
    "city": "KUOPIO",
    "website": "https://www.compass-group.fi/",
    "admin": "COMPASS GROUP FINLAND OY",
    "admin_website": "https://www.compass-group.fi/",
    "longitude": 27.636083,
    "latitude": 62.892177
  },
  {
    "name": "ANTELL ROUND",
    "address": "MICROKATU 1, PL 1188",
    "postal_code": "70210",
    "city": "KUOPIO",
    "website": "https://www.antell.fi/round",
    "admin": "ANTELL ITÄINEN OY",
    "admin_website": null,
    "longitude": 27.628612,
    "latitude": 62.888875
  },
  {
    "name": "HILIMA 6809",
    "address": "KYS RAK1 T-KÄYTÄVÄ PUIJONLAAKSONTIE 2",
    "postal_code": "70210",
    "city": "KUOPIO",
    "website": "https://www.servica.fi/palvelumme/ruokapalvelut/",
    "admin": "SERVICA OY",
    "admin_website": "https://www.servica.fi/palvelumme/ruokapalvelut/",
    "longitude": 27.648536,
    "latitude": 62.897451
  },
  {
    "name": "JAKELUPISTE (0442) MEDITEKNIA. ITÄ-SUOMEN YLIOPISTO",
    "address": "HARJULANTIE 1",
    "postal_code": "70210",
    "city": "KUOPIO",
    "website": "https://www.compass-group.fi/",
    "admin": "COMPASS GROUP FINLAND OY",
    "admin_website": "https://www.compass-group.fi/",
    "longitude": 26.966991,
    "latitude": 62.89483
  },
  {
    "name": "KAARRE 6810",
    "address": "KYS RAK 2, 1KRS PUIJONALAAKSONTIE 2",
    "postal_code": "70210",
    "city": "KUOPIO",
    "website": "https://www.servica.fi/palvelumme/ruokapalvelut/",
    "admin": "SERVICA OY",
    "admin_website": "https://www.servica.fi/palvelumme/ruokapalvelut/",
    "longitude": 27.650378,
    "latitude": 62.896981
  },
  {
    "name": "KUOPION MUSIIKKIKESKUKSEN RAVINTOLA",
    "address": "KUOPIONLAHDENKATU 23",
    "postal_code": "70100",
    "city": "KUOPIO",
    "website": "https://www.kanresta.fi",
    "admin": "KANRESTA OY",
    "admin_website": "https://www.kanresta.fi",
    "longitude": 27.67881,
    "latitude": 62.887975
  },
  {
    "name": "OPISKELIJARAVINTOLA KOIVUKOKKI",
    "address": "KANSANOPISTOTIE 32",
    "postal_code": "70800",
    "city": "KUOPIO",
    "website": "https://www.psko.fi/",
    "admin": "POHJOIS-SAVON KANSANOPISTOSEURA RY",
    "admin_website": "https://www.psko.fi/",
    "longitude": 27.627644,
    "latitude": 62.815326
  },
  {
    "name": "RAVINTOKESKUS",
    "address": "NIUVANKUJA 65",
    "postal_code": "70240",
    "city": "KUOPIO",
    "website": "https://www.niuva.fi/",
    "admin": "NIUVANNIEMEN SAIRAALA",
    "admin_website": "https://www.niuva.fi/",
    "longitude": 27.625484,
    "latitude": 62.914274
  },
  {
    "name": "SAVOTALO 6812",
    "address": "TULLIPORTINKATU 17",
    "postal_code": "70700",
    "city": "KUOPIO",
    "website": "https://www.servica.fi/palvelumme/ruokapalvelut/",
    "admin": "SERVICA OY",
    "admin_website": "https://www.servica.fi/palvelumme/ruokapalvelut/",
    "longitude": 27.68687,
    "latitude": 62.894033
  },
  {
    "name": "SNELLMANIA. ITÄ-SUOMEN YO KUOPIN KAMPUS (0437)",
    "address": "YLIOPISTONRANTA 1 E",
    "postal_code": "70210",
    "city": "KUOPIO",
    "website": "https://www.compass-group.fi/",
    "admin": "COMPASS GROUP FINLAND OY",
    "admin_website": "https://www.compass-group.fi/",
    "longitude": 27.635451,
    "latitude": 62.892237
  },
  {
    "name": "TIETOTEKNIA",
    "address": "SAVILAHDENTIE 6 L 4",
    "postal_code": "70210",
    "city": "KUOPIO",
    "website": "https://www.compass-group.fi/",
    "admin": "COMPASS GROUP FINLAND OY",
    "admin_website": "https://www.compass-group.fi/",
    "longitude": 27.636723,
    "latitude": 62.890853
  },
  {
    "name": "LOUNASRAVINTOLA HELMI",
    "address": "OSMAJOENTIE 75 A",
    "postal_code": "78210",
    "city": "VARKAUS",
    "website": "https://sakky.fi",
    "admin": "SAVON KOULUTUSKUNTAYHTYMÄ",
    "admin_website": "https://sakky.fi",
    "longitude": 27.850591,
    "latitude": 62.328025
  },
  {
    "name": "HEINOLAN TERVEYSASEMAN RAVINTOLA",
    "address": "TORIKATU 13",
    "postal_code": "18100",
    "city": "HEINOLA",
    "website": null,
    "admin": "VIREKO OY",
    "admin_website": null,
    "longitude": 26.034408,
    "latitude": 61.206036
  },
  {
    "name": "RAVINTOLA PUHTI",
    "address": "PIHKALANTIE 3",
    "postal_code": "19120",
    "city": "VIERUMÄKI",
    "website": "https://vierumaki.fi/ravintola-puhti",
    "admin": "VIERUMÄKI SPORTS OY",
    "admin_website": null,
    "longitude": 26.009151354955783,
    "latitude": 61.11426547448989
  },
  {
    "name": "HENKILÖSTÖRAVINTOLA LOUNATUULI",
    "address": "KESKUSSAIRAALANKATU 7",
    "postal_code": "15850",
    "city": "LAHTI",
    "website": null,
    "admin": "PÄIJÄT-HÄMEEN ATERIAPALVELUT OY",
    "admin_website": "https://www.paijatateria.fi/",
    "longitude": 25.568155,
    "latitude": 60.991571
  },
  {
    "name": "LEHTIOJAN PALVELUKESKUKSEN KEITTIÖ",
    "address": "LEHTIOJANTIE 2",
    "postal_code": "15240",
    "city": "LAHTI",
    "website": null,
    "admin": "VIREKO OY",
    "admin_website": null,
    "longitude": 25.668663,
    "latitude": 61.022115
  },
  {
    "name": "RAVINTOLA ISKUCENTER",
    "address": "MUKKULANKATU 19",
    "postal_code": "15210",
    "city": "LAHTI",
    "website": "https://www.compass-group.fi/",
    "admin": "COMPASS GROUP FINLAND OY",
    "admin_website": "https://www.compass-group.fi/",
    "longitude": 25.665574,
    "latitude": 61.00474
  },
  {
    "name": "SALPAUSSELÄN KUNTOUTUSSAIR JALMARIN HENKILÖSTÖRAVINTOLA",
    "address": "TARJANTIE 78",
    "postal_code": "15950",
    "city": "LAHTI",
    "website": null,
    "admin": "VIREKO OY",
    "admin_website": null,
    "longitude": 25.590256,
    "latitude": 60.991629
  },
  {
    "name": "SHIKSHA LOUNASKAHVILA",
    "address": "NIEMENKATU 73, LAB-AMMATTIKORKEAKOULU, TIEDEPUISTO",
    "postal_code": "15140",
    "city": "LAHTI",
    "website": null,
    "admin": "KARELIAN BITES AY",
    "admin_website": null,
    "longitude": 25.652236,
    "latitude": 61.004955
  },
  {
    "name": "HARJAVALLAN PALVELUPISTE",
    "address": "SAIRAALANTIE 14",
    "postal_code": "29200",
    "city": "HARJAVALTA",
    "website": null,
    "admin": "SATAKUNNAN HYVINVOINTIALUE",
    "admin_website": null,
    "longitude": 22.146962,
    "latitude": 61.301165
  },
  {
    "name": "RAVINTOLA PALETTI",
    "address": "PAASIKIVENKATU 24",
    "postal_code": "38700",
    "city": "KANKAANPÄÄ",
    "website": "https://www.compass-group.fi/",
    "admin": "COMPASS GROUP FINLAND OY",
    "admin_website": "https://www.compass-group.fi/",
    "longitude": 22.398887,
    "latitude": 61.80269
  },
  {
    "name": "LOUNAS- JA JUHLAPALVELU PIKANTTI, RAV. PIHLAJASALI",
    "address": "METSÄMIEHENKATU 2",
    "postal_code": "28500",
    "city": "PORI",
    "website": null,
    "admin": "DIAKON PALVELUT OY",
    "admin_website": null,
    "longitude": 21.776966,
    "latitude": 61.474628
  },
  {
    "name": "LOUNASRAVINTOLA TYRNI JA KAHVIO MOCCA",
    "address": "SAIRAALANTIE 3",
    "postal_code": "28500",
    "city": "PORI",
    "website": null,
    "admin": "SATAKUNNAN HYVINVOINTIALUE",
    "admin_website": null,
    "longitude": 21.779382,
    "latitude": 61.473101
  },
  {
    "name": "MAANTIENKADUN TERVEYSKESKUSKEITTIÖN RUOKASALI",
    "address": "MAANTIENKATU 31",
    "postal_code": "28120",
    "city": "PORI",
    "website": null,
    "admin": "SATAKUNNAN HYVINVOINTIALUE",
    "admin_website": null,
    "longitude": 21.77023,
    "latitude": 61.486281
  },
  {
    "name": "RAVINTOLA SILVIA JA KAHVILA AGORA (351)",
    "address": "SATAKUNNANKATU 23",
    "postal_code": "28100",
    "city": "PORI",
    "website": null,
    "admin": "COMPASS GROUP FINLAND OY",
    "admin_website": "https://www.compass-group.fi/",
    "longitude": 21.792237,
    "latitude": 61.476385
  },
  {
    "name": "SOFIA/PORIN YLIOPISTOKESKUS",
    "address": "SILTAPUISTOKATU 2",
    "postal_code": "28100",
    "city": "PORI",
    "website": "https://www.compass-group.fi/",
    "admin": "COMPASS GROUP FINLAND OY",
    "admin_website": "https://www.compass-group.fi/",
    "longitude": 21.798929,
    "latitude": 61.493295
  },
  {
    "name": "LÄNSITUULI/OKL RAUMAN YKSIKKÖ & TORNI (0557)",
    "address": "SEMINAARINKATU 1",
    "postal_code": "26100",
    "city": "RAUMA",
    "website": "https://www.compass-group.fi/",
    "admin": "COMPASS GROUP FINLAND OY",
    "admin_website": "https://www.compass-group.fi/",
    "longitude": 21.494741,
    "latitude": 61.131174
  },
  {
    "name": "OPISKELIJARAVINTOLA KIIKARTORN",
    "address": "SUOJANTIE 2",
    "postal_code": "26100",
    "city": "RAUMA",
    "website": "https://www.winnova.fi/",
    "admin": "LÄNSIRANNIKON KOULUTUS OY, WINNOVA",
    "admin_website": "https://www.winnova.fi/",
    "longitude": 21.477675,
    "latitude": 61.126043
  },
  {
    "name": "OPISKELIJARAVINTOLA SOSTERI",
    "address": "STENIUKSENKATU 8",
    "postal_code": "26100",
    "city": "RAUMA",
    "website": "https://www.winnova.fi/",
    "admin": "LÄNSIRANNIKON KOULUTUS OY, WINNOVA",
    "admin_website": "https://www.winnova.fi/",
    "longitude": 21.528857,
    "latitude": 61.130761
  },
  {
    "name": "RAVINTOLA FREGATTI (352)",
    "address": "SATAMAKATU 26",
    "postal_code": "26100",
    "city": "RAUMA",
    "website": null,
    "admin": "COMPASS GROUP FINLAND OY",
    "admin_website": "https://www.compass-group.fi/",
    "longitude": 21.482229,
    "latitude": 61.127777
  },
  {
    "name": "RAVINTOLA KANALI",
    "address": "SATAMAKATU 26",
    "postal_code": "26100",
    "city": "RAUMA",
    "website": "https://juvenes.fi/kanali/",
    "admin": "JUVENES OY",
    "admin_website": "https://www.juvenes.fi",
    "longitude": 21.482229,
    "latitude": 61.127777
  },
  {
    "name": "STENIUKSEN HENKILÖSTÖRAVINTOLA",
    "address": "STENIUKSENKATU 2",
    "postal_code": "26100",
    "city": "RAUMA",
    "website": null,
    "admin": "SATAKUNNAN HYVINVOINTIALUE",
    "admin_website": null,
    "longitude": 21.523898,
    "latitude": 61.129647
  },
  {
    "name": "AALTO KVARKKI",
    "address": "OTAKAARI 3",
    "postal_code": "02150",
    "city": "ESPOO",
    "website": "https://www.sodexo.fi",
    "admin": "SODEXO OY",
    "admin_website": "https://www.sodexo.fi",
    "longitude": 24.830025,
    "latitude": 60.188366
  },
  {
    "name": "AALTO-YO TIETOT JA SUBWAY",
    "address": "KONEMIEHENTIE 2",
    "postal_code": "02150",
    "city": "ESPOO",
    "website": "https://www.sodexo.fi",
    "admin": "SODEXO OY",
    "admin_website": "https://www.sodexo.fi",
    "longitude": 24.822108,
    "latitude": 60.186776
  },
  {
    "name": "ALVARI/ AALTO YLIOPISTO (0190)",
    "address": "OTAKAARI 1 D",
    "postal_code": "02150",
    "city": "ESPOO",
    "website": "https://www.compass-group.fi/",
    "admin": "COMPASS GROUP FINLAND OY",
    "admin_website": "https://www.compass-group.fi/",
    "longitude": 24.82676,
    "latitude": 60.185408
  },
  {
    "name": "BARLAUREA OPETUSRAVINTOLA",
    "address": "VANHA MAANTIE 9",
    "postal_code": "02650",
    "city": "ESPOO",
    "website": "https://laurea.fi/",
    "admin": "LAUREA-AMMATTIKORKEAKOULU OY",
    "admin_website": "https://laurea.fi/",
    "longitude": 24.805258,
    "latitude": 60.22282
  },
  {
    "name": "DIPOLI RAVINTOLAT, AALTO YLIOPISTO (3101)",
    "address": "OTAKAARI 24",
    "postal_code": "02150",
    "city": "ESPOO",
    "website": "https://www.compass-group.fi/",
    "admin": "COMPASS GROUP FINLAND OY",
    "admin_website": "https://www.compass-group.fi/",
    "longitude": 24.832206,
    "latitude": 60.184923
  },
  {
    "name": "FAZER FOOD & CO. A BLOCK RAVINTOLA, (810387)",
    "address": "OTANIEMENTIE 12 AALTO METROKESKUS",
    "postal_code": "02150",
    "city": "ESPOO",
    "website": "https://www.compass-group.fi/",
    "admin": "COMPASS GROUP FINLAND OY",
    "admin_website": "https://www.compass-group.fi/",
    "longitude": 24.825804,
    "latitude": 60.184774
  },
  {
    "name": "JORVIN SAIRAALA, RUOKAPALVELUT",
    "address": "TURUNTIE 150",
    "postal_code": "02740",
    "city": "ESPOO",
    "website": null,
    "admin": "HUS-YHTYMÄ/ RUNKOPALVELUT, RUOKAPALVELUT",
    "admin_website": null,
    "longitude": 24.688716,
    "latitude": 60.222996
  },
  {
    "name": "KIPSARI (KÄYNTIOS. OTANIEMENTIE 14, 02150 ESPOO)",
    "address": "C/O AALTO-YLIOPISTO, PL 31000",
    "postal_code": "00076",
    "city": "AALTO",
    "website": "https://www.kipsari.com/",
    "admin": "KIPSARI OY",
    "admin_website": "https://www.kipsari.com/",
    "longitude": 24.640117,
    "latitude": 60.14968
  },
  {
    "name": "LOUNASRAVINTOLA/KAHVILA SUOLAHEINÄ",
    "address": "KARVASMÄENTIE 4-6",
    "postal_code": "02740",
    "city": "ESPOO",
    "website": null,
    "admin": "HUS-YHTYMÄ/ RUNKOPALVELUT, RUOKAPALVELUT",
    "admin_website": null,
    "longitude": 24.685793,
    "latitude": 60.222067
  },
  {
    "name": "MENESSA",
    "address": "OTAKAARI 7",
    "postal_code": "02780",
    "city": "ESPOO",
    "website": null,
    "admin": "MENESSA OY",
    "admin_website": null,
    "longitude": 24.833254,
    "latitude": 60.189036
  },
  {
    "name": "METROPOLIA AMMATTIKORKEAKOULU (3208)",
    "address": "KARAKAARENKUJA 6",
    "postal_code": "02610",
    "city": "ESPOO",
    "website": "https://www.compass-group.fi/",
    "admin": "COMPASS GROUP FINLAND OY",
    "admin_website": "https://www.compass-group.fi/",
    "longitude": 24.758296,
    "latitude": 60.223167
  },
  {
    "name": "RAVINTOLA LAUREA OTANIEMEN KAMPUS",
    "address": "METSÄNPOJANKUJA 3",
    "postal_code": "02130",
    "city": "ESPOO",
    "website": "https://www.compass-group.fi/",
    "admin": "COMPASS GROUP FINLAND OY",
    "admin_website": "https://www.compass-group.fi/",
    "longitude": 24.805504,
    "latitude": 60.1858
  },
  {
    "name": "TEKNOLOGFÖRENINGEN",
    "address": "OTSVÄNGEN 22",
    "postal_code": "02150",
    "city": "ESPOO",
    "website": "https://www.teknologforeningen.fi",
    "admin": "TEKNOLOGFÖRENINGEN",
    "admin_website": null,
    "longitude": 24.832462,
    "latitude": 60.185924
  },
  {
    "name": "TUAS-TALO/AALTO YLIOPISTO (0199)",
    "address": "MAARINTIE 8",
    "postal_code": "02150",
    "city": "ESPOO",
    "website": "https://www.compass-group.fi/",
    "admin": "COMPASS GROUP FINLAND OY",
    "admin_website": "https://www.compass-group.fi/",
    "longitude": 24.819554,
    "latitude": 60.186878
  },
  {
    "name": "TVÄRMINNEN ELÄINTIETEELLINEN AS.",
    "address": "J.A. PALMÉNIN TIE 260",
    "postal_code": "10900",
    "city": "HANKO",
    "website": null,
    "admin": "HELSINGIN YLIOPISTO",
    "admin_website": null,
    "longitude": 23.249188,
    "latitude": 59.844477
  },
  {
    "name": "ARCADA/YRKESHÖGSKOLAN ARCADA (3003)",
    "address": "JAN-MAGNUS JANSSONSPLATS 1",
    "postal_code": "00550",
    "city": "HELSINKI",
    "website": "https://www.compass-group.fi/",
    "admin": "COMPASS GROUP FINLAND OY",
    "admin_website": "https://www.compass-group.fi/",
    "longitude": 24.965279,
    "latitude": 60.20123
  },
  {
    "name": "AURORAN SAIRAALA, RAVINTOLA (9535200002)",
    "address": "NORDENSKIÖLDINKATU 20",
    "postal_code": "00250",
    "city": "HELSINKI",
    "website": "https://www.hel.fi/palvelukeskus/fi/ateriapalvelut/",
    "admin": "HELSINGIN KAUPUNGIN PALVELUKESKUS",
    "admin_website": "https://www.hel.fi/palvelukeskus/fi/ateriapalvelut/",
    "longitude": 24.926902,
    "latitude": 60.192222
  },
  {
    "name": "BIOMEDICUMIN PALVELUKEITTIÖ",
    "address": "HAARTMANINKATU 8",
    "postal_code": "00029",
    "city": "HUS",
    "website": null,
    "admin": "HUS-YHTYMÄ/ RUNKOPALVELUT, RUOKAPALVELUT",
    "admin_website": null,
    "longitude": 24.906035,
    "latitude": 60.190413
  },
  {
    "name": "DIAK KALASATAMA KAMPUS/DIAKONIA AMK(3104)",
    "address": "KYLÄSAARENKUJA 2",
    "postal_code": "00580",
    "city": "HELSINKI",
    "website": "https://www.compass-group.fi/",
    "admin": "COMPASS GROUP FINLAND OY",
    "admin_website": "https://www.compass-group.fi/",
    "longitude": 24.9694,
    "latitude": 60.19888
  },
  {
    "name": "FOOD&CO ARABIANRANTA",
    "address": "HÄMEENTIE 135 A",
    "postal_code": "00560",
    "city": "HELSINKI",
    "website": "https://www.compass-group.fi/",
    "admin": "COMPASS GROUP FINLAND OY",
    "admin_website": "https://www.compass-group.fi/",
    "longitude": 24.978083,
    "latitude": 60.208509
  },
  {
    "name": "HKI YLIOPISTON PÄÄRAKENNUS JA KAHVILA CIVIS",
    "address": "YLIOPISTONKATU 2",
    "postal_code": "00100",
    "city": "HELSINKI",
    "website": "https://www.sodexo.fi",
    "admin": "SODEXO OY",
    "admin_website": "https://www.sodexo.fi",
    "longitude": 24.949654,
    "latitude": 60.16977
  },
  {
    "name": "IHO- JA ALLERGIASAIRAALA, PALVELUKEITTIÖ",
    "address": "MEILAHDENTIE 2, 3 KRS",
    "postal_code": "00029",
    "city": "HUS",
    "website": null,
    "admin": "HUS-YHTYMÄ/ RUNKOPALVELUT, RUOKAPALVELUT",
    "admin_website": null,
    "longitude": 24.895126,
    "latitude": 60.191532
  },
  {
    "name": "INFOKESKUS",
    "address": "VIIKINKAARI 11",
    "postal_code": "00790",
    "city": "HELSINKI",
    "website": "https://unicafe.fi/restaurants/infokeskus/",
    "admin": "YLVA PALVELUT OY",
    "admin_website": "https://ylva.fi/",
    "longitude": 25.012766,
    "latitude": 60.227214
  },
  {
    "name": "JAKELUPISTE BISTRO/OPETUSTALO",
    "address": "RATAPIHANTIE 13",
    "postal_code": "00520",
    "city": "HELSINKI",
    "website": "https://www.compass-group.fi/",
    "admin": "COMPASS GROUP FINLAND OY",
    "admin_website": "https://www.compass-group.fi/",
    "longitude": 24.933845,
    "latitude": 60.201615
  },
  {
    "name": "KIRURGISEN SAIRAALAN PALVELUKEITTIÖ",
    "address": "KASARMIKATU 11-13",
    "postal_code": "00130",
    "city": "HELSINKI",
    "website": null,
    "admin": "HUS-YHTYMÄ/ RUNKOPALVELUT, RUOKAPALVELUT",
    "admin_website": null,
    "longitude": 24.949829,
    "latitude": 60.162374
  },
  {
    "name": "KIVELÄN RAVINTOKESKUS",
    "address": "SIBELIUKSENKATU 14, RAK. 6 (PL 9512)",
    "postal_code": "00260",
    "city": "HELSINKI",
    "website": "https://www.hel.fi/palvelukeskus/fi/ateriapalvelut/",
    "admin": "HELSINGIN KAUPUNGIN PALVELUKESKUS",
    "admin_website": "https://www.hel.fi/palvelukeskus/fi/ateriapalvelut/",
    "longitude": 24.923411,
    "latitude": 60.182632
  },
  {
    "name": "KOSKELAN MONIPUOLINEN PALVELUKESKUS",
    "address": "KÄPYLÄNTIE 11",
    "postal_code": "00600",
    "city": "HELSINKI",
    "website": "https://www.hel.fi/palvelukeskus/fi/ateriapalvelut/",
    "admin": "HELSINGIN KAUPUNGIN PALVELUKESKUS",
    "admin_website": "https://www.hel.fi/palvelukeskus/fi/ateriapalvelut/",
    "longitude": 24.963181,
    "latitude": 60.216978
  },
  {
    "name": "LAAKSON SAIRAALA, RAVINTOLA (9535200002)",
    "address": "LÄÄKÄRINKATU 8",
    "postal_code": "00250",
    "city": "HELSINKI",
    "website": "https://www.hel.fi/palvelukeskus/fi/ateriapalvelut/",
    "admin": "HELSINGIN KAUPUNGIN PALVELUKESKUS",
    "admin_website": "https://www.hel.fi/palvelukeskus/fi/ateriapalvelut/",
    "longitude": 24.917294,
    "latitude": 60.192759
  },
  {
    "name": "MALMIN SAIRAALA, RAVINTOLA (9535200004)",
    "address": "TALVELANTIE 6",
    "postal_code": "00700",
    "city": "HELSINKI",
    "website": "https://www.hel.fi/palvelukeskus/fi/ateriapalvelut/",
    "admin": "HELSINGIN KAUPUNGIN PALVELUKESKUS",
    "admin_website": "https://www.hel.fi/palvelukeskus/fi/ateriapalvelut/",
    "longitude": 24.997001,
    "latitude": 60.252794
  },
  {
    "name": "MEILAHTI, RUOKAPALVELUT",
    "address": "STENBÄCKINKATU 9",
    "postal_code": "00029",
    "city": "HUS",
    "website": null,
    "admin": "HUS-YHTYMÄ/ RUNKOPALVELUT, RUOKAPALVELUT",
    "admin_website": null,
    "longitude": 24.910065,
    "latitude": 60.187247
  },
  {
    "name": "METROPOLIA MYLLYPURO",
    "address": "MYLLYPURONTIE 1",
    "postal_code": "00920",
    "city": "HELSINKI",
    "website": "https://www.sodexo.fi/ravintolat/metropolia-myllypuro",
    "admin": "SODEXO OY",
    "admin_website": "https://www.sodexo.fi",
    "longitude": 25.077162,
    "latitude": 60.223713
  },
  {
    "name": "MUSIIKKITALON RAVINTOLAT",
    "address": "MANNERHEIMINTIE 13A",
    "postal_code": "00100",
    "city": "HELSINKI",
    "website": null,
    "admin": "COMPASS GROUP FINLAND OY",
    "admin_website": "https://www.compass-group.fi/",
    "longitude": 24.935107,
    "latitude": 60.173743
  },
  {
    "name": "MYÖHÄ CAFE & BAR",
    "address": "MANNERHEIMINTIE 3",
    "postal_code": "00101",
    "city": "HELSINKI",
    "website": "https://unicafe.fi/restaurants/myoha/",
    "admin": "YLVA PALVELUT OY",
    "admin_website": "https://ylva.fi/",
    "longitude": 24.940585,
    "latitude": 60.168913
  },
  {
    "name": "OSAKUNTABAARI",
    "address": "URHO KEKKOSEN KATU 4-6 D",
    "postal_code": "00100",
    "city": "HELSINKI",
    "website": "https://hys.net/osakuntabaari/",
    "admin": "HÄMÄLÄISTEN TALON OSAKUNTABAARI OY",
    "admin_website": "https://hys.net/osakuntabaari/",
    "longitude": 24.932852,
    "latitude": 60.16853
  },
  {
    "name": "PUISTOSAIRAALA",
    "address": "STENBÄCKINKATU 11",
    "postal_code": "00029",
    "city": "HUS",
    "website": null,
    "admin": "HUS-YHTYMÄ/ RUNKOPALVELUT, RUOKAPALVELUT",
    "admin_website": null,
    "longitude": 24.90928,
    "latitude": 60.186976
  },
  {
    "name": "PÄÄRAIDE/OPETUSTALO (0083)",
    "address": "RAUTATIELÄISENKATU 5",
    "postal_code": "00520",
    "city": "HELSINKI",
    "website": "https://www.compass-group.fi/",
    "admin": "COMPASS GROUP FINLAND OY",
    "admin_website": "https://www.compass-group.fi/",
    "longitude": 24.93556,
    "latitude": 60.201434
  },
  {
    "name": "RAVINTOLA CAFFELI",
    "address": "PAJUNIITYNTIE 11",
    "postal_code": "00320",
    "city": "HELSINKI",
    "website": null,
    "admin": "HOTEL HAAGA OY",
    "admin_website": null,
    "longitude": 24.906525,
    "latitude": 60.217928
  },
  {
    "name": "RAVINTOLA KONSERVATORIO",
    "address": "RUOHOLAHDENTORI 6",
    "postal_code": "00180",
    "city": "HELSINKI",
    "website": "https://ruoka.palmia.fi/fi/ravintola/ravintolat/",
    "admin": "PALMIA OY",
    "admin_website": "https://ruoka.palmia.fi/fi/ravintola/ravintolat/",
    "longitude": 24.914365,
    "latitude": 60.162184
  },
  {
    "name": "RAVINTOLA LADONLUKKO",
    "address": "LATOKARTANONKAARI 9",
    "postal_code": "00790",
    "city": "HELSINKI",
    "website": "https://www.sodexo.fi/ravintolat/ravintola-ladonlukko",
    "admin": "SODEXO OY",
    "admin_website": "https://www.sodexo.fi",
    "longitude": 25.019345,
    "latitude": 60.229019
  },
  {
    "name": "RAVINTOLA LUOVA",
    "address": "HÄMEENTIE 135 D",
    "postal_code": "00560",
    "city": "HELSINKI",
    "website": null,
    "admin": "COMPASS GROUP FINLAND OY",
    "admin_website": "https://www.compass-group.fi/",
    "longitude": 24.976674,
    "latitude": 60.209894
  },
  {
    "name": "RAVINTOLA PERHON HELMI",
    "address": "VANHA HELSINGINTIE 13",
    "postal_code": "00700",
    "city": "HELSINKI",
    "website": null,
    "admin": "PERHO LIIKETALOUSOPISTO OY",
    "admin_website": null,
    "longitude": 25.0122,
    "latitude": 60.246909
  },
  {
    "name": "RAVINTOLA SERPENS (YTHS)",
    "address": "TÖÖLÖNKATU 37 A",
    "postal_code": "00260",
    "city": "HELSINKI",
    "website": "https://ylva.fi/",
    "admin": "YLVA PALVELUT OY",
    "admin_website": "https://ylva.fi/",
    "longitude": 24.923,
    "latitude": 60.182249
  },
  {
    "name": "RAVINTOLA TEMPO",
    "address": "NERVANDERINKATU 13",
    "postal_code": "00100",
    "city": "HELSINKI",
    "website": "https://www.compass-group.fi/",
    "admin": "COMPASS GROUP FINLAND OY",
    "admin_website": "https://www.compass-group.fi/",
    "longitude": 24.928593,
    "latitude": 60.17391
  },
  {
    "name": "RAVINTOLA TÖÖLÖ 37 (3704)",
    "address": "TÖÖLÖNKATU 37 A",
    "postal_code": "00260",
    "city": "HELSINKI",
    "website": "https://www.compass-group.fi/",
    "admin": "COMPASS GROUP FINLAND OY",
    "admin_website": "https://www.compass-group.fi/",
    "longitude": 24.923,
    "latitude": 60.182249
  },
  {
    "name": "RAVINTOLA VALKEA TALO",
    "address": "ILKANTIE 4",
    "postal_code": "00401",
    "city": "HELSINKI",
    "website": "https://www.delicatessen.fi/",
    "admin": "OY SHABA AB",
    "admin_website": "https://www.delicatessen.fi/",
    "longitude": 24.901971,
    "latitude": 60.221667
  },
  {
    "name": "SUURSUON SAIRAALAN RAVINTOLA MISTELI (9535200003)",
    "address": "SUURSUONLAITA 3 B",
    "postal_code": "00630",
    "city": "HELSINKI",
    "website": "https://www.hel.fi/palvelukeskus/fi/ateriapalvelut/",
    "admin": "HELSINGIN KAUPUNGIN PALVELUKESKUS",
    "admin_website": "https://www.hel.fi/palvelukeskus/fi/ateriapalvelut/",
    "longitude": 24.932614,
    "latitude": 60.234966
  },
  {
    "name": "SVENSKA HANDELSHÖGSKOLAN (3406)",
    "address": "ARKADIANKATU 22",
    "postal_code": "00100",
    "city": "HELSINKI",
    "website": "https://www.compass-group.fi/",
    "admin": "COMPASS GROUP FINLAND OY",
    "admin_website": "https://www.compass-group.fi/",
    "longitude": 24.92434,
    "latitude": 60.171134
  },
  {
    "name": "TEATTERIKORKEAKOULU (3067)",
    "address": "HAAPANIEMENKATU 6",
    "postal_code": "00530",
    "city": "HELSINKI",
    "website": "https://www.compass-group.fi/",
    "admin": "COMPASS GROUP FINLAND OY",
    "admin_website": "https://www.compass-group.fi/",
    "longitude": 24.958896,
    "latitude": 60.181155
  },
  {
    "name": "TÖÖLÖN SAIRAALA, RUOKAPALVELUT",
    "address": "TOPELIUKSENKATU 5",
    "postal_code": "00029",
    "city": "HUS",
    "website": null,
    "admin": "HUS-YHTYMÄ/ RUNKOPALVELUT, RUOKAPALVELUT",
    "admin_website": null,
    "longitude": 24.922023,
    "latitude": 60.18085
  },
  {
    "name": "UNICAFE BIOKESKUS",
    "address": "VIIKINKAARI 9",
    "postal_code": "00790",
    "city": "HELSINKI",
    "website": "https://unicafe.fi/restaurants/biokeskus/",
    "admin": "YLVA PALVELUT OY",
    "admin_website": "https://ylva.fi/",
    "longitude": 25.013855,
    "latitude": 60.227139
  },
  {
    "name": "UNICAFE BIOKESKUS 2",
    "address": "VIIKINKAARI 5",
    "postal_code": "00790",
    "city": "HELSINKI",
    "website": "https://unicafe.fi",
    "admin": "YLVA PALVELUT OY",
    "admin_website": "https://ylva.fi/",
    "longitude": 25.016173,
    "latitude": 60.226162
  },
  {
    "name": "UNICAFE BIOKESKUS 3",
    "address": "VIIKINKAARI 1",
    "postal_code": "00790",
    "city": "HELSINKI",
    "website": null,
    "admin": "YLVA PALVELUT OY",
    "admin_website": "https://ylva.fi/",
    "longitude": 25.017001,
    "latitude": 60.225407
  },
  {
    "name": "UNICAFE CHEMICUM",
    "address": "A. I. VIRTASEN AUKIO 1",
    "postal_code": "00560",
    "city": "HELSINKI",
    "website": "https://unicafe.fi/restaurants/chemicum/",
    "admin": "YLVA PALVELUT OY",
    "admin_website": "https://ylva.fi/",
    "longitude": 24.963407,
    "latitude": 60.205708
  },
  {
    "name": "UNICAFE EXACTUM",
    "address": "GUSTAF HÄLLSTRÖMIN KATU 2",
    "postal_code": "00560",
    "city": "HELSINKI",
    "website": "https://unicafe.fi/restaurants/exactum/",
    "admin": "YLVA PALVELUT OY",
    "admin_website": "https://ylva.fi/",
    "longitude": 24.962761,
    "latitude": 60.205098
  },
  {
    "name": "UNICAFE KAISA-TALO",
    "address": "VUORIKATU 7",
    "postal_code": "00101",
    "city": "HELSINKI",
    "website": "https://unicafe.fi/restaurants/well-kaisa-talo/",
    "admin": "YLVA PALVELUT OY",
    "admin_website": "https://ylva.fi/",
    "longitude": 24.947861,
    "latitude": 60.171144
  },
  {
    "name": "UNICAFE KAIVOPIHA",
    "address": "MANNERHEIMINTIE 3 B",
    "postal_code": "00100",
    "city": "HELSINKI",
    "website": "https://unicafe.fi/restaurants/kaivopiha/",
    "admin": "YLVA PALVELUT OY",
    "admin_website": "https://ylva.fi/",
    "longitude": 24.940769,
    "latitude": 60.169357
  },
  {
    "name": "UNICAFE MEILAHTI",
    "address": "HAARTMANINKATU 3",
    "postal_code": "00290",
    "city": "HELSINKI",
    "website": "https://unicafe.fi/restaurants/meilahti/",
    "admin": "YLVA PALVELUT OY",
    "admin_website": "https://ylva.fi/",
    "longitude": 24.909481,
    "latitude": 60.190173
  },
  {
    "name": "UNICAFE METSÄTALO",
    "address": "FABIANINKATU 39",
    "postal_code": "00170",
    "city": "HELSINKI",
    "website": "https://unicafe.fi/restaurants/metsatalo/",
    "admin": "YLVA PALVELUT OY",
    "admin_website": "https://ylva.fi/",
    "longitude": 24.949232,
    "latitude": 60.172658
  },
  {
    "name": "UNICAFE OLIVIA",
    "address": "SILTAVUORENPENGER 5 A, 1 KRS",
    "postal_code": "00170",
    "city": "HELSINKI",
    "website": "https://unicafe.fi/restaurants/olivia/",
    "admin": "YLVA PALVELUT OY",
    "admin_website": "https://ylva.fi/",
    "longitude": 24.953352,
    "latitude": 60.175356
  },
  {
    "name": "UNICAFE PHYSICUM",
    "address": "GUSTAF HÄLLSTRÖMIN KATU 2",
    "postal_code": "00560",
    "city": "HELSINKI",
    "website": "https://unicafe.fi/restaurants/physicum/",
    "admin": "YLVA PALVELUT OY",
    "admin_website": "https://ylva.fi/",
    "longitude": 24.962761,
    "latitude": 60.205098
  },
  {
    "name": "UNICAFE PORTHANIA & PORTAALI",
    "address": "YLIOPISTONKATU 3",
    "postal_code": "00170",
    "city": "HELSINKI",
    "website": "https://unicafe.fi/restaurants/porthania/",
    "admin": "YLVA PALVELUT OY",
    "admin_website": "https://ylva.fi/",
    "longitude": 24.948468,
    "latitude": 60.170131
  },
  {
    "name": "UNICAFE ROTUNDA",
    "address": "UNIONINKATU 36",
    "postal_code": "00170",
    "city": "HELSINKI",
    "website": "https://unicafe.fi/restaurants/rotunda/",
    "admin": "YLVA PALVELUT OY",
    "admin_website": "https://ylva.fi/",
    "longitude": 24.950676,
    "latitude": 60.170354
  },
  {
    "name": "UNICAFE SOC & KOM",
    "address": "SNELLMANNINKATU 12",
    "postal_code": "00170",
    "city": "HELSINKI",
    "website": "https://unicafe.fi/restaurants/sockom/",
    "admin": "YLVA PALVELUT OY",
    "admin_website": "https://ylva.fi/",
    "longitude": 24.952269,
    "latitude": 60.173103
  },
  {
    "name": "UNICAFE TOPELIAS",
    "address": "UNIONINKATU 38",
    "postal_code": "00170",
    "city": "HELSINKI",
    "website": "https://unicafe.fi",
    "admin": "YLVA PALVELUT OY",
    "admin_website": "https://ylva.fi/",
    "longitude": 24.950391,
    "latitude": 60.172017
  },
  {
    "name": "UNICAFE TÄHKÄ",
    "address": "KOETILANTIE 7",
    "postal_code": "00790",
    "city": "HELSINKI",
    "website": null,
    "admin": "YLVA PALVELUT OY",
    "admin_website": "https://ylva.fi/",
    "longitude": 25.019063,
    "latitude": 60.223165
  },
  {
    "name": "UNICAFE VIIKUNA",
    "address": "AGNES SJÖBERGIN KATU 2",
    "postal_code": "00790",
    "city": "HELSINKI",
    "website": "https://unicafe.fi/restaurants/viikuna/",
    "admin": "YLVA PALVELUT OY",
    "admin_website": "https://ylva.fi/",
    "longitude": 25.022114,
    "latitude": 60.229266
  },
  {
    "name": "HYVINKÄÄN SAIRAALAN LOUNASRAVINTOLA",
    "address": "SAIRAALANKATU 1",
    "postal_code": "05850",
    "city": "HYVINKÄÄ",
    "website": "https://www.ravitsemispalvelut.fi/",
    "admin": "HYVINKÄÄN RAVITSEMISPALVELUT OY",
    "admin_website": "https://www.ravitsemispalvelut.fi/",
    "longitude": 24.829709,
    "latitude": 60.61032
  },
  {
    "name": "RAVINTOLA LAUREA HYVINKÄÄN KAMPUS",
    "address": "UUDENMAANKATU 22",
    "postal_code": "05800",
    "city": "HYVINKÄÄ",
    "website": "https://www.compass-group.fi/",
    "admin": "COMPASS GROUP FINLAND OY",
    "admin_website": "https://www.compass-group.fi/",
    "longitude": 24.855738,
    "latitude": 60.626451
  },
  {
    "name": "ATERIAKEIDAS, KEUDA",
    "address": "SIBELIUKSENVÄYLÄ 55",
    "postal_code": "04400",
    "city": "JÄRVENPÄÄ",
    "website": "https://keuda.fi",
    "admin": "KESKI-UUDENMAAN KOULUTUSKUNTAYHTYMÄ",
    "admin_website": "https://keuda.fi",
    "longitude": 25.082853,
    "latitude": 60.459839
  },
  {
    "name": "TYÖVÄEN AKATEMIAN OPISKELIJARAVINTOLA",
    "address": "VANHA TURUNTIE 14",
    "postal_code": "02700",
    "city": "KAUNIAINEN",
    "website": "https://www.akatemia.org/lounas/",
    "admin": "TYÖVÄEN AKATEMIA",
    "admin_website": "https://www.akatemia.org/",
    "longitude": 24.717945,
    "latitude": 60.221565
  },
  {
    "name": "OPISKELIJA- JA TILAUSRAVINTOLA BREIKKI",
    "address": "KESKIKATU 3 A",
    "postal_code": "04200",
    "city": "KERAVA",
    "website": "https://keuda.fi",
    "admin": "KESKI-UUDENMAAN KOULUTUSKUNTAYHTYMÄ",
    "admin_website": "https://keuda.fi",
    "longitude": 25.100858,
    "latitude": 60.40533
  },
  {
    "name": "LOHJAN SAIRAALA, RUOKAPALVELUT",
    "address": "SAIRAALATIE 8",
    "postal_code": "08200",
    "city": "LOHJA",
    "website": null,
    "admin": "HUS-YHTYMÄ/ RUNKOPALVELUT, RUOKAPALVELUT",
    "admin_website": null,
    "longitude": 24.016713,
    "latitude": 60.223271
  },
  {
    "name": "TOIVONKADUN KAMPUKSEN OPISKELIJARAVINTOLA",
    "address": "TOIVONKATU 4",
    "postal_code": "08100",
    "city": "LOHJA",
    "website": "https://www.luksia.fi/",
    "admin": "LÄNSI-UUDENMAAN KOULUTUSKUNTAYHTYMÄ, LUKSIA",
    "admin_website": "https://www.luksia.fi/",
    "longitude": 24.070892,
    "latitude": 60.248093
  },
  {
    "name": "KEUDA MÄNTSÄLÄ, LUSIKKALINNA OP. RAVINTOLA",
    "address": "PARONINKUJA 20",
    "postal_code": "04920",
    "city": "SAARENTAUS",
    "website": "https://keuda.fi",
    "admin": "KESKI-UUDENMAAN KOULUTUSKUNTAYHTYMÄ",
    "admin_website": "https://keuda.fi",
    "longitude": 25.422102,
    "latitude": 60.735487
  },
  {
    "name": "PORVOON CAMPUS",
    "address": "TAIDETEHTAANKATU 1",
    "postal_code": "06100",
    "city": "PORVOO",
    "website": "https://www.compass-group.fi/",
    "admin": "COMPASS GROUP FINLAND OY",
    "admin_website": "https://www.compass-group.fi/",
    "longitude": 25.655152,
    "latitude": 60.38767
  },
  {
    "name": "PORVOON SAIRAALA, RUOKAPALVELUT",
    "address": "SAIRAALANTIE 1",
    "postal_code": "06150",
    "city": "PORVOO",
    "website": null,
    "admin": "HUS-YHTYMÄ/ RUNKOPALVELUT, RUOKAPALVELUT",
    "admin_website": null,
    "longitude": 25.69722,
    "latitude": 60.377578
  },
  {
    "name": "LÄNSI-UUDENMAAN SAIRAANHOITOALUE, RUOKAPALVELUT",
    "address": "ITÄINEN RANTAKATU 9",
    "postal_code": "10600",
    "city": "TAMMISAARI",
    "website": null,
    "admin": "HUS-YHTYMÄ/ RUNKOPALVELUT, RUOKAPALVELUT",
    "admin_website": null,
    "longitude": 23.441788,
    "latitude": 59.968451
  },
  {
    "name": "TAMMIHARJUN SAIRAALA",
    "address": "RAASEPORINTIE 37",
    "postal_code": "10600",
    "city": "TAMMISAARI",
    "website": null,
    "admin": "HUS-YHTYMÄ/ RUNKOPALVELUT, RUOKAPALVELUT",
    "admin_website": null,
    "longitude": 23.475568,
    "latitude": 59.983766
  },
  {
    "name": "KELLOKOSKEN SAIRAALAN RUOKAPALVELUT",
    "address": "VANHA VALTATIE 198",
    "postal_code": "04500",
    "city": "KELLOKOSKI",
    "website": null,
    "admin": "HUS-YHTYMÄ/ RUNKOPALVELUT, RUOKAPALVELUT",
    "admin_website": null,
    "longitude": 25.108801,
    "latitude": 60.533968
  },
  {
    "name": "METROPOLIA LEIRITIE",
    "address": "LEIRITIE 1",
    "postal_code": "01600",
    "city": "VANTAA",
    "website": "https://www.sodexo.fi/ravintolat/metropolia-myyrmaki",
    "admin": "SODEXO OY",
    "admin_website": "https://www.sodexo.fi",
    "longitude": 24.843822,
    "latitude": 60.258218
  },
  {
    "name": "PEIJAKSEN SAIRAALA, RUOKAPALVELUT",
    "address": "SAIRAALAKATU 1",
    "postal_code": "01400",
    "city": "VANTAA",
    "website": null,
    "admin": "HUS-YHTYMÄ/ RUNKOPALVELUT, RUOKAPALVELUT",
    "admin_website": null,
    "longitude": 25.059151,
    "latitude": 60.33151
  },
  {
    "name": "RAVINTOLA LAUREA TIKKURILAN KAMPUS",
    "address": "RATATIE 22",
    "postal_code": "01300",
    "city": "VANTAA",
    "website": "https://www.compass-group.fi/",
    "admin": "COMPASS GROUP FINLAND OY",
    "admin_website": "https://www.compass-group.fi/",
    "longitude": 25.044186,
    "latitude": 60.294854
  },
  {
    "name": "TRADERIA/KAUPPIAITTEN KAUPPAOPPILAITOS (3329)",
    "address": "MARTINLAAKSONTIE 36",
    "postal_code": "01620",
    "city": "VANTAA",
    "website": "https://www.compass-group.fi/",
    "admin": "COMPASS GROUP FINLAND OY",
    "admin_website": "https://www.compass-group.fi/",
    "longitude": 24.845153,
    "latitude": 60.275033
  },
  {
    "name": "LOIMAAN SAIRAALAN RUOKASALI",
    "address": "SEPPÄLÄNKATU 15-17",
    "postal_code": "32200",
    "city": "LOIMAA",
    "website": null,
    "admin": "KAAREA OY",
    "admin_website": "https://kaarea.fi/ruokapalvelut",
    "longitude": 23.050323,
    "latitude": 60.85176
  },
  {
    "name": "AXXELL PARGAS STORKÖK",
    "address": "VAPPARVÄGEN 4",
    "postal_code": "21600",
    "city": "PARAINEN",
    "website": null,
    "admin": "AXXELL UTBILDING AB",
    "admin_website": null,
    "longitude": 22.297319,
    "latitude": 60.307614
  },
  {
    "name": "KIILAKEITTIÖ IOT CAMPUS",
    "address": "JOENSUUNKATU 7",
    "postal_code": "24100",
    "city": "SALO",
    "website": null,
    "admin": "HOIVA-JUSTIINA TMI",
    "admin_website": null,
    "longitude": 23.10722,
    "latitude": 60.389211
  },
  {
    "name": "SALON SAIRAALAN RAVINTOLA",
    "address": "SAIRAALANTIE 9, SALO",
    "postal_code": "24130",
    "city": "SALO",
    "website": "https://kaarea.fi/ruokapalvelut",
    "admin": "KAAREA OY",
    "admin_website": "https://kaarea.fi/ruokapalvelut",
    "longitude": 23.13102,
    "latitude": 60.375896
  },
  {
    "name": "AMICA/MÄNTYMÄEN RAVINTOKESKUS (0520)",
    "address": "LUOLAVUORENTIE 2",
    "postal_code": "20700",
    "city": "TURKU",
    "website": "https://www.compass-group.fi/",
    "admin": "COMPASS GROUP FINLAND OY",
    "admin_website": "https://www.compass-group.fi/",
    "longitude": 22.275838,
    "latitude": 60.439419
  },
  {
    "name": "ASSARIN ULLAKKO",
    "address": "REHTORINPELLONKATU 4 A",
    "postal_code": "20500",
    "city": "TURKU",
    "website": "https://www.unica.fi/",
    "admin": "UNICA OY",
    "admin_website": "https://www.unica.fi/",
    "longitude": 22.287464,
    "latitude": 60.454483
  },
  {
    "name": "AURIGA, PORT CENTER",
    "address": "JUHANA HERTTUAN PUISTOKATU 21",
    "postal_code": "20100",
    "city": "TURKU",
    "website": "https://www.sodexo.fi",
    "admin": "SODEXO OY",
    "admin_website": "https://www.sodexo.fi",
    "longitude": 22.22723,
    "latitude": 60.4396
  },
  {
    "name": "DELICA",
    "address": "ITÄINEN PITKÄKATU 4",
    "postal_code": "20520",
    "city": "TURKU",
    "website": "https://www.unica.fi/",
    "admin": "UNICA OY",
    "admin_website": "https://www.unica.fi/",
    "longitude": 22.292735,
    "latitude": 60.448739
  },
  {
    "name": "KASVISRAVINTOLA KEIDAS",
    "address": "UUDENMAANKATU 3",
    "postal_code": "20500",
    "city": "TURKU",
    "website": null,
    "admin": "KASVISRAVINTOLA KEIDAS",
    "admin_website": null,
    "longitude": 22.277967,
    "latitude": 60.449957
  },
  {
    "name": "KISÄLLI",
    "address": "JOUKAHAISENKATU 7",
    "postal_code": "20520",
    "city": "TURKU",
    "website": "https://www.unica.fi/",
    "admin": "UNICA OY",
    "admin_website": "https://www.unica.fi/",
    "longitude": 22.297583,
    "latitude": 60.448334
  },
  {
    "name": "KÅRKAFé ARKEN",
    "address": "FABRIKSGATAN 2",
    "postal_code": "20500",
    "city": "TURKU",
    "website": "https://www.abo.fi/karen/index.php?page=matlistor",
    "admin": "KAFÉ GADOLINIA KB/ÅBO AKADEMIS STUDENTKÅR",
    "admin_website": "https://www.abo.fi/karen/index.php?page=matlistor",
    "longitude": 22.279184,
    "latitude": 60.456647
  },
  {
    "name": "KÅRKAFé ASA",
    "address": "FÄNRIKSGATAN 3",
    "postal_code": "20500",
    "city": "TURKU",
    "website": "https://www.abo.fi/karen/index.php?page=matlistor",
    "admin": "KAFÉ GADOLINIA KB/ÅBO AKADEMIS STUDENTKÅR",
    "admin_website": "https://www.abo.fi/karen/index.php?page=matlistor",
    "longitude": 22.281955,
    "latitude": 60.456748
  },
  {
    "name": "KÅRKAFé AURUM",
    "address": "HENRIKSGATAN 2",
    "postal_code": "20500",
    "city": "TURKU",
    "website": "https://www.abo.fi/karen/index.php?page=matlistor",
    "admin": "KAFÉ GADOLINIA KB/ÅBO AKADEMIS STUDENTKÅR",
    "admin_website": "https://www.abo.fi/karen/index.php?page=matlistor",
    "longitude": 22.282194,
    "latitude": 60.454867
  },
  {
    "name": "KÅRKAFé KÅREN",
    "address": "TAVASTGATAN 22",
    "postal_code": "20500",
    "city": "TURKU",
    "website": "https://www.abo.fi/karen/index.php?page=matlistor",
    "admin": "KAFÉ GADOLINIA KB/ÅBO AKADEMIS STUDENTKÅR",
    "admin_website": "https://www.abo.fi/karen/index.php?page=matlistor",
    "longitude": 22.276073,
    "latitude": 60.449693
  },
  {
    "name": "MACCIAVELLI",
    "address": "ASSISTENTINKATU 5",
    "postal_code": "20500",
    "city": "TURKU",
    "website": "https://www.unica.fi/",
    "admin": "UNICA OY",
    "admin_website": "https://www.unica.fi/",
    "longitude": 22.285624,
    "latitude": 60.458233
  },
  {
    "name": "MEDISIINA D/FLAVORIA TURKU",
    "address": "KIINAMYLLYNKATU 10",
    "postal_code": "20520",
    "city": "TURKU",
    "website": "https://www.sodexo.fi/ravintolat/flavoria-medisiina-d",
    "admin": "SODEXO OY",
    "admin_website": "https://www.sodexo.fi",
    "longitude": 22.293684,
    "latitude": 60.452229
  },
  {
    "name": "MONTTU JA MERCATORI",
    "address": "REHTORINPELLONKATU 3",
    "postal_code": "20360",
    "city": "TURKU",
    "website": "https://www.unica.fi/",
    "admin": "UNICA OY",
    "admin_website": "https://www.unica.fi/",
    "longitude": 22.288722,
    "latitude": 60.454795
  },
  {
    "name": "MUUSA",
    "address": "LINNANKATU 54",
    "postal_code": "20100",
    "city": "TURKU",
    "website": "https://www.unica.fi/",
    "admin": "UNICA OY",
    "admin_website": "https://www.unica.fi/",
    "longitude": 22.243614,
    "latitude": 60.440348
  },
  {
    "name": "RAVINTOLA DENTAL",
    "address": "LEMMINKÄISENKATU 2",
    "postal_code": "20520",
    "city": "TURKU",
    "website": "https://www.unica.fi/",
    "admin": "UNICA OY",
    "admin_website": "https://www.unica.fi/",
    "longitude": 22.2921,
    "latitude": 60.450056
  },
  {
    "name": "RAVINTOLA GALILEI",
    "address": "VESILINNANTIE 3",
    "postal_code": "20500",
    "city": "TURKU",
    "website": "https://www.unica.fi/",
    "admin": "UNICA OY",
    "admin_website": "https://www.unica.fi/",
    "longitude": 22.285654,
    "latitude": 60.455459
  },
  {
    "name": "RAVINTOLA LINUS",
    "address": "JOUKAHAISENKATU 3",
    "postal_code": "20500",
    "city": "TURKU",
    "website": "https://www.unica.fi/",
    "admin": "UNICA OY",
    "admin_website": "https://www.unica.fi/",
    "longitude": 22.295652,
    "latitude": 60.449372
  },
  {
    "name": "RAVINTOLA WANHA TALLI",
    "address": "HARJATTULANTIE 80",
    "postal_code": "20960",
    "city": "TURKU",
    "website": "https://www.paasikiviopisto.fi/",
    "admin": "PAASIKIVIOPISTOYHDISTYS R.Y.",
    "admin_website": "https://www.paasikiviopisto.fi/",
    "longitude": 22.290512,
    "latitude": 60.370752
  },
  {
    "name": "RESTAURANT BLOCK",
    "address": "INSPEHTORINKATU 12",
    "postal_code": "20540",
    "city": "TURKU",
    "website": "https://juvenes.fi/block/",
    "admin": "JUVENES OY",
    "admin_website": "https://www.juvenes.fi",
    "longitude": 22.288545,
    "latitude": 60.462673
  },
  {
    "name": "SIGYN",
    "address": "LINNANKATU 60",
    "postal_code": "20100",
    "city": "TURKU",
    "website": "https://www.unica.fi/",
    "admin": "UNICA OY",
    "admin_website": "https://www.unica.fi/",
    "longitude": 22.237993,
    "latitude": 60.438054
  },
  {
    "name": "TURUN AMK/LEMMINKÄISENKATU",
    "address": "LEMMINKÄISENKATU 30",
    "postal_code": "20520",
    "city": "TURKU",
    "website": "https://www.sodexo.fi",
    "admin": "SODEXO OY",
    "admin_website": "https://www.sodexo.fi",
    "longitude": 22.299458,
    "latitude": 60.446769
  },
  {
    "name": "U-HENKILÖSTÖRAVINTOLA",
    "address": "KIINAMYLLYNKATU 1-4, TURKU",
    "postal_code": "20500",
    "city": "TURKU",
    "website": "https://kaarea.fi/ruokapalvelut",
    "admin": "KAAREA OY",
    "admin_website": "https://kaarea.fi/ruokapalvelut",
    "longitude": 22.285811,
    "latitude": 60.453508
  },
  {
    "name": "UNICAN KULMA",
    "address": "BRAHENKATU 2",
    "postal_code": "20100",
    "city": "TURKU",
    "website": "https://www.unica.fi/",
    "admin": "UNICA OY",
    "admin_website": "https://www.unica.fi/",
    "longitude": 22.272,
    "latitude": 60.451381
  },
  {
    "name": "VAKKA-SUOMEN SAIRAALAN RAVINTOLA",
    "address": "TERVEYSTIE 2, UUSIKAUPUNKI",
    "postal_code": "23500",
    "city": "UUSIKAUPUNKI",
    "website": "https://kaarea.fi/ruokapalvelut",
    "admin": "KAAREA OY",
    "admin_website": "https://kaarea.fi/ruokapalvelut",
    "longitude": 21.422237,
    "latitude": 60.795717
  }
]